{"type":"FeatureCollection", "features": [
{"type":"Feature","geometry":{"type":"Point","coordinates":[-73.991256,40.74175]},"properties":{"OBJECTID":1,"ID":1,"Name":"The Home Depot","Address":"40 W 23rd St","Borough":"MANHATTAN","HouseNum":40,"Street":"W 23rd St","BoroCode":1,"BIN":1080673,"LAT":40.74175,"LONG":-73.991256}},
{"type":"Feature","geometry":{"type":"Point","coordinates":[-73.967631,40.761576]},"properties":{"OBJECTID":2,"ID":2,"Name":"The Home Depot","Address":"980 3rd Ave","Borough":"MANHATTAN","HouseNum":980,"Street":"3rd Ave","BoroCode":1,"BIN":1086160,"LAT":40.761576,"LONG":-73.967631}},
{"type":"Feature","geometry":{"type":"Point","coordinates":[-73.989893,40.761728]},"properties":{"OBJECTID":3,"ID":3,"Name":"Manhattan Hardware & Housewares Inc.","Address":"688 9th Ave","Borough":"MANHATTAN","HouseNum":688,"Street":"9th Ave","BoroCode":1,"BIN":1025084,"LAT":40.761728,"LONG":-73.989893}},
{"type":"Feature","geometry":{"type":"Point","coordinates":[-73.987802,40.764509]},"properties":{"OBJECTID":4,"ID":4,"Name":"West Side Home Center Inc","Address":"778 9th Ave","Borough":"MANHATTAN","HouseNum":778,"Street":"9th Ave","BoroCode":1,"BIN":1078889,"LAT":40.764509,"LONG":-73.987802}},
{"type":"Feature","geometry":{"type":"Point","coordinates":[-73.971841,40.75084]},"properties":{"OBJECTID":5,"ID":5,"Name":"Midtown Hardware","Address":"815 2nd Ave","Borough":"MANHATTAN","HouseNum":815,"Street":"2nd Ave","BoroCode":1,"BIN":1037561,"LAT":40.75084,"LONG":-73.971841}},
{"type":"Feature","geometry":{"type":"Point","coordinates":[-73.987571,40.725047]},"properties":{"OBJECTID":6,"ID":6,"Name":"Brickman's Ace Hardware Lower East Side","Address":"55 1st Ave.","Borough":"MANHATTAN","HouseNum":55,"Street":"1st Ave.","BoroCode":1,"BIN":1006180,"LAT":40.725047,"LONG":-73.987571}},
{"type":"Feature","geometry":{"type":"Point","coordinates":[-73.98559,40.726738]},"properties":{"OBJECTID":7,"ID":7,"Name":"Saifee Hardware & Garden","Address":"114 1st Ave.","Borough":"MANHATTAN","HouseNum":114,"Street":"1st Ave.","BoroCode":1,"BIN":1005775,"LAT":40.726738,"LONG":-73.98559}},
{"type":"Feature","geometry":{"type":"Point","coordinates":[-73.994141,40.727257]},"properties":{"OBJECTID":8,"ID":8,"Name":"M & D Shapiro True Value Hardware","Address":"7 Great Jones St","Borough":"MANHATTAN","HouseNum":7,"Street":"Great Jones St","BoroCode":1,"BIN":1008474,"LAT":40.727257,"LONG":-73.994141}},
{"type":"Feature","geometry":{"type":"Point","coordinates":[-73.979885,40.742731]},"properties":{"OBJECTID":9,"ID":9,"Name":"Simon's Hardware & Bath","Address":"421 3rd Ave","Borough":"MANHATTAN","HouseNum":421,"Street":"3rd Ave","BoroCode":1,"BIN":1019917,"LAT":40.742731,"LONG":-73.979885}},
{"type":"Feature","geometry":{"type":"Point","coordinates":[-74.000494,40.730859]},"properties":{"OBJECTID":10,"ID":10,"Name":"Brickman's Ace Hardware West Village","Address":"125 W 3rd St","Borough":"MANHATTAN","HouseNum":125,"Street":"W 3rd St","BoroCode":1,"BIN":1008767,"LAT":40.730859,"LONG":-74.000494}},
{"type":"Feature","geometry":{"type":"Point","coordinates":[-73.943396,40.789857]},"properties":{"OBJECTID":11,"ID":11,"Name":"Hardware N.Y. Inc.","Address":"2035 2nd Ave","Borough":"MANHATTAN","HouseNum":2035,"Street":"2nd Ave","BoroCode":1,"BIN":1052390,"LAT":40.789857,"LONG":-73.943396}},
{"type":"Feature","geometry":{"type":"Point","coordinates":[-73.986051,40.766584]},"properties":{"OBJECTID":12,"ID":12,"Name":"Columbus Hardware","Address":"842 9th Avenue","Borough":"MANHATTAN","HouseNum":842,"Street":"9th Avenue","BoroCode":1,"BIN":1025422,"LAT":40.766584,"LONG":-73.986051}},
{"type":"Feature","geometry":{"type":"Point","coordinates":[-73.96936,40.753178]},"properties":{"OBJECTID":13,"ID":13,"Name":"Stellar Hardware & Bath","Address":"900 2nd Ave","Borough":"MANHATTAN","HouseNum":900,"Street":"2nd Ave","BoroCode":1,"BIN":1038905,"LAT":40.753178,"LONG":-73.96936}},
{"type":"Feature","geometry":{"type":"Point","coordinates":[-74.001743,40.746361]},"properties":{"OBJECTID":14,"ID":14,"Name":"Garber Hardware","Address":"207a 9th Ave","Borough":"MANHATTAN","HouseNum":207,"Street":"9th Ave","BoroCode":1,"BIN":1012697,"LAT":40.746361,"LONG":-74.001743}},
{"type":"Feature","geometry":{"type":"Point","coordinates":[-73.954789,40.770328]},"properties":{"OBJECTID":15,"ID":15,"Name":"Rainbow ACE Hardware","Address":"1449 1st Ave.","Borough":"MANHATTAN","HouseNum":1449,"Street":"1st Ave.","BoroCode":1,"BIN":1045148,"LAT":40.770328,"LONG":-73.954789}},
{"type":"Feature","geometry":{"type":"Point","coordinates":[-73.98894,40.739834]},"properties":{"OBJECTID":16,"ID":16,"Name":"JM Hardware Locksmith","Address":"19 E 21st St","Borough":"MANHATTAN","HouseNum":19,"Street":"E 21st St","BoroCode":1,"BIN":1016245,"LAT":40.739834,"LONG":-73.98894}},
{"type":"Feature","geometry":{"type":"Point","coordinates":[-73.993123,40.763398]},"properties":{"OBJECTID":17,"ID":17,"Name":"Garden Hardware & Supply","Address":"701 10th Ave","Borough":"MANHATTAN","HouseNum":701,"Street":"10th Ave","BoroCode":1,"BIN":1026997,"LAT":40.763398,"LONG":-73.993123}},
{"type":"Feature","geometry":{"type":"Point","coordinates":[-73.978149,40.787036]},"properties":{"OBJECTID":18,"ID":18,"Name":"Basics Plus","Address":"2315 Broadway","Borough":"MANHATTAN","HouseNum":2315,"Street":"Broadway","BoroCode":1,"BIN":1032791,"LAT":40.787036,"LONG":-73.978149}},
{"type":"Feature","geometry":{"type":"Point","coordinates":[-73.980033,40.742182]},"properties":{"OBJECTID":19,"ID":19,"Name":"Nuthouse Hardware","Address":"202 E 29th St","Borough":"MANHATTAN","HouseNum":202,"Street":"E 29th St","BoroCode":1,"BIN":1019910,"LAT":40.742182,"LONG":-73.980033}},
{"type":"Feature","geometry":{"type":"Point","coordinates":[-73.977866,40.778168]},"properties":{"OBJECTID":20,"ID":20,"Name":"73rd Street Hardware, Inc.","Address":"65 W 73rd St","Borough":"MANHATTAN","HouseNum":65,"Street":"W 73rd St","BoroCode":1,"BIN":1028650,"LAT":40.778168,"LONG":-73.977866}},
{"type":"Feature","geometry":{"type":"Point","coordinates":[-73.965846,40.765866]},"properties":{"OBJECTID":21,"ID":21,"Name":"Elegance in Hardware and Bath","Address":"860 Lexington Ave","Borough":"MANHATTAN","HouseNum":860,"Street":"Lexington Ave","BoroCode":1,"BIN":1042382,"LAT":40.765866,"LONG":-73.965846}},
{"type":"Feature","geometry":{"type":"Point","coordinates":[-74.005139,40.743882]},"properties":{"OBJECTID":22,"ID":22,"Name":"Prince Hardware","Address":"436 W 18th St","Borough":"MANHATTAN","HouseNum":436,"Street":"W 18th St","BoroCode":1,"BIN":1012550,"LAT":40.743882,"LONG":-74.005139}},
{"type":"Feature","geometry":{"type":"Point","coordinates":[-74.006086,40.719009]},"properties":{"OBJECTID":23,"ID":23,"Name":"TRIBECA PAINT ace hardware","Address":"217 W Broadway","Borough":"MANHATTAN","HouseNum":217,"Street":"W Broadway","BoroCode":1,"BIN":1079284,"LAT":40.719009,"LONG":-74.006086}},
{"type":"Feature","geometry":{"type":"Point","coordinates":[-73.970901,40.796564]},"properties":{"OBJECTID":24,"ID":24,"Name":"Max pro hardware","Address":"2617 Broadway","Borough":"MANHATTAN","HouseNum":2617,"Street":"Broadway","BoroCode":1,"BIN":1056410,"LAT":40.796564,"LONG":-73.970901}},
{"type":"Feature","geometry":{"type":"Point","coordinates":[-73.987744,40.744634]},"properties":{"OBJECTID":25,"ID":25,"Name":"Manhattan Home Improvement Referral","Address":"244 5th Ave","Borough":"MANHATTAN","HouseNum":244,"Street":"5th Ave","BoroCode":1,"BIN":1015690,"LAT":40.744634,"LONG":-73.987744}},
{"type":"Feature","geometry":{"type":"Point","coordinates":[-73.966709,40.76381]},"properties":{"OBJECTID":26,"ID":26,"Name":"Lexington Hardware & Electric Co","Address":"797 Lexington Ave","Borough":"MANHATTAN","HouseNum":797,"Street":"Lexington Ave","BoroCode":1,"BIN":1041996,"LAT":40.76381,"LONG":-73.966709}},
{"type":"Feature","geometry":{"type":"Point","coordinates":[-73.984841,40.71916]},"properties":{"OBJECTID":27,"ID":27,"Name":"Rivington Discount & Hardware","Address":"166 Rivington St","Borough":"MANHATTAN","HouseNum":166,"Street":"Rivington St","BoroCode":1,"BIN":1004125,"LAT":40.71916,"LONG":-73.984841}},
{"type":"Feature","geometry":{"type":"Point","coordinates":[-73.984628,40.737289]},"properties":{"OBJECTID":28,"ID":28,"Name":"Warshaw Hardware","Address":"248 3rd Ave","Borough":"MANHATTAN","HouseNum":248,"Street":"3rd Ave","BoroCode":1,"BIN":1017962,"LAT":40.737289,"LONG":-73.984628}},
{"type":"Feature","geometry":{"type":"Point","coordinates":[-73.976205,40.789646]},"properties":{"OBJECTID":29,"ID":29,"Name":"Mike's Lumber & Hardware","Address":"254 W 88th St","Borough":"MANHATTAN","HouseNum":254,"Street":"W 88th St","BoroCode":1,"BIN":1033221,"LAT":40.789646,"LONG":-73.976205}},
{"type":"Feature","geometry":{"type":"Point","coordinates":[-73.985357,40.718172]},"properties":{"OBJECTID":30,"ID":30,"Name":"Lower eastside hardware","Address":"98 Clinton St","Borough":"MANHATTAN","HouseNum":98,"Street":"Clinton St","BoroCode":1,"BIN":1004194,"LAT":40.718172,"LONG":-73.985357}},
{"type":"Feature","geometry":{"type":"Point","coordinates":[-73.95421,40.777444]},"properties":{"OBJECTID":31,"ID":31,"Name":"hardware store Hercules Supply House","Address":"213 E 84th St","Borough":"MANHATTAN","HouseNum":213,"Street":"E 84th St","BoroCode":1,"BIN":1048727,"LAT":40.777444,"LONG":-73.95421}},
{"type":"Feature","geometry":{"type":"Point","coordinates":[-74.007563,40.733886]},"properties":{"OBJECTID":32,"ID":32,"Name":"Garber Hardware","Address":"710 Greenwich St","Borough":"MANHATTAN","HouseNum":710,"Street":"Greenwich St","BoroCode":1,"BIN":1011760,"LAT":40.733886,"LONG":-74.007563}},
{"type":"Feature","geometry":{"type":"Point","coordinates":[-73.996243,40.742796]},"properties":{"OBJECTID":33,"ID":33,"Name":"Kove Bro. True Value Hardware","Address":"189 7th Ave","Borough":"MANHATTAN","HouseNum":189,"Street":"7th Ave","BoroCode":1,"BIN":1080584,"LAT":40.742796,"LONG":-73.996243}},
{"type":"Feature","geometry":{"type":"Point","coordinates":[-73.982699,40.730715]},"properties":{"OBJECTID":34,"ID":34,"Name":"H & W Hardware","Address":"220 1st Ave.","Borough":"MANHATTAN","HouseNum":220,"Street":"1st Ave.","BoroCode":1,"BIN":1006010,"LAT":40.730715,"LONG":-73.982699}},
{"type":"Feature","geometry":{"type":"Point","coordinates":[-74.007437,40.707759]},"properties":{"OBJECTID":35,"ID":35,"Name":"Dick's Cut-Rate Hardware INC.","Address":"9 Gold St","Borough":"MANHATTAN","HouseNum":9,"Street":"Gold St","BoroCode":1,"BIN":1001112,"LAT":40.707759,"LONG":-74.007437}},
{"type":"Feature","geometry":{"type":"Point","coordinates":[-73.976176,40.7893]},"properties":{"OBJECTID":36,"ID":36,"Name":"Mega Building Supply - Upper West Side","Address":"2387 Broadway","Borough":"MANHATTAN","HouseNum":2387,"Street":"Broadway","BoroCode":1,"BIN":1033206,"LAT":40.7893,"LONG":-73.976176}},
{"type":"Feature","geometry":{"type":"Point","coordinates":[-73.978674,40.782101]},"properties":{"OBJECTID":37,"ID":37,"Name":"BEACON HARDWARE","Address":"371 Amsterdam Ave","Borough":"MANHATTAN","HouseNum":371,"Street":"Amsterdam Ave","BoroCode":1,"BIN":1030226,"LAT":40.782101,"LONG":-73.978674}},
{"type":"Feature","geometry":{"type":"Point","coordinates":[-73.984265,40.747678]},"properties":{"OBJECTID":38,"ID":38,"Name":"Admore Hardware & Lock","Address":"11 E 33rd St","Borough":"MANHATTAN","HouseNum":11,"Street":"E 33rd St","BoroCode":1,"BIN":1017076,"LAT":40.747678,"LONG":-73.984265}},
{"type":"Feature","geometry":{"type":"Point","coordinates":[-73.993203,40.723607]},"properties":{"OBJECTID":39,"ID":39,"Name":"Bowery Home Supplies","Address":"270 Bowery","Borough":"MANHATTAN","HouseNum":270,"Street":"Bowery","BoroCode":1,"BIN":1007868,"LAT":40.723607,"LONG":-73.993203}},
{"type":"Feature","geometry":{"type":"Point","coordinates":[-73.984754,40.752865]},"properties":{"OBJECTID":40,"ID":40,"Name":"Scheman's Bryant Park","Address":"55 W 39th St","Borough":"MANHATTAN","HouseNum":55,"Street":"W 39th St","BoroCode":1,"BIN":1016035,"LAT":40.752865,"LONG":-73.984754}},
{"type":"Feature","geometry":{"type":"Point","coordinates":[-73.977896,40.731724]},"properties":{"OBJECTID":41,"ID":41,"Name":"Brickman's Ace Hardware Stuy Town","Address":"312-316 1st Ave.","Borough":"MANHATTAN","HouseNum":312,"Street":"1st Ave.","BoroCode":1,"BIN":1082864,"LAT":40.731724,"LONG":-73.977896}},
{"type":"Feature","geometry":{"type":"Point","coordinates":[-73.958946,40.801605]},"properties":{"OBJECTID":42,"ID":42,"Name":"M&M Hardware Store & More","Address":"258 Manhattan Ave","Borough":"MANHATTAN","HouseNum":258,"Street":"Manhattan Ave","BoroCode":1,"BIN":1055754,"LAT":40.801605,"LONG":-73.958946}},
{"type":"Feature","geometry":{"type":"Point","coordinates":[-73.967623,40.800639]},"properties":{"OBJECTID":43,"ID":43,"Name":"Casa Hardware & Locksmith Inc.","Address":"2748 Broadway","Borough":"MANHATTAN","HouseNum":2748,"Street":"Broadway","BoroCode":1,"BIN":1056608,"LAT":40.800639,"LONG":-73.967623}},
{"type":"Feature","geometry":{"type":"Point","coordinates":[-73.954074,40.769916]},"properties":{"OBJECTID":44,"ID":44,"Name":"S & V True Value Hardware","Address":"1450 1st Ave.","Borough":"MANHATTAN","HouseNum":1450,"Street":"1st Ave.","BoroCode":1,"BIN":1045920,"LAT":40.769916,"LONG":-73.954074}},
{"type":"Feature","geometry":{"type":"Point","coordinates":[-73.956046,40.785059]},"properties":{"OBJECTID":45,"ID":45,"Name":"S Feldman Housewares","Address":"1304 Madison Ave","Borough":"MANHATTAN","HouseNum":1304,"Street":"Madison Ave","BoroCode":1,"BIN":1047066,"LAT":40.785059,"LONG":-73.956046}},
{"type":"Feature","geometry":{"type":"Point","coordinates":[-73.968726,40.79815]},"properties":{"OBJECTID":46,"ID":46,"Name":"The Upper Westside Hardware","Address":"2672 Broadway","Borough":"MANHATTAN","HouseNum":2672,"Street":"Broadway","BoroCode":1,"BIN":1056517,"LAT":40.79815,"LONG":-73.968726}},
{"type":"Feature","geometry":{"type":"Point","coordinates":[-73.946115,40.790102]},"properties":{"OBJECTID":47,"ID":47,"Name":"El Barrio Hardware","Address":"1876 3rd Ave","Borough":"MANHATTAN","HouseNum":1876,"Street":"3rd Ave","BoroCode":1,"BIN":1051926,"LAT":40.790102,"LONG":-73.946115}},
{"type":"Feature","geometry":{"type":"Point","coordinates":[-73.974445,40.747256]},"properties":{"OBJECTID":48,"ID":48,"Name":"Lumber Boys","Address":"699 2nd Ave","Borough":"MANHATTAN","HouseNum":699,"Street":"2nd Ave","BoroCode":1,"BIN":1020340,"LAT":40.747256,"LONG":-73.974445}},
{"type":"Feature","geometry":{"type":"Point","coordinates":[-73.98112,40.778086]},"properties":{"OBJECTID":49,"ID":49,"Name":"Gartner's Hardware","Address":"162 W 72nd St","Borough":"MANHATTAN","HouseNum":162,"Street":"W 72nd St","BoroCode":1,"BIN":1029900,"LAT":40.778086,"LONG":-73.98112}},
{"type":"Feature","geometry":{"type":"Point","coordinates":[-73.969456,40.795825]},"properties":{"OBJECTID":50,"ID":50,"Name":"C & S True Value Hardware","Address":"788 Amsterdam Ave","Borough":"MANHATTAN","HouseNum":788,"Street":"Amsterdam Ave","BoroCode":1,"BIN":1056403,"LAT":40.795825,"LONG":-73.969456}},
{"type":"Feature","geometry":{"type":"Point","coordinates":[-73.948534,40.777535]},"properties":{"OBJECTID":51,"ID":51,"Name":"New York Paint & Hardware - Benjamin Moore Yorkville","Address":"1668 1st Ave.","Borough":"MANHATTAN","HouseNum":1668,"Street":"1st Ave.","BoroCode":1,"BIN":1050569,"LAT":40.777535,"LONG":-73.948534}},
{"type":"Feature","geometry":{"type":"Point","coordinates":[-73.961381,40.800722]},"properties":{"OBJECTID":52,"ID":52,"Name":"Garcia Hardware & Households","Address":"995 Columbus Ave","Borough":"MANHATTAN","HouseNum":995,"Street":"Columbus Ave","BoroCode":1,"BIN":1055735,"LAT":40.800722,"LONG":-73.961381}},
{"type":"Feature","geometry":{"type":"Point","coordinates":[-73.992464,40.721493]},"properties":{"OBJECTID":53,"ID":53,"Name":"Mikco Building Materials","Address":"179 Chrystie St","Borough":"MANHATTAN","HouseNum":179,"Street":"Chrystie St","BoroCode":1,"BIN":1084641,"LAT":40.721493,"LONG":-73.992464}},
{"type":"Feature","geometry":{"type":"Point","coordinates":[-73.990279,40.733098]},"properties":{"OBJECTID":54,"ID":54,"Name":"Union Square Supply","Address":"130 4th Ave","Borough":"MANHATTAN","HouseNum":130,"Street":"4th Ave","BoroCode":1,"BIN":1009212,"LAT":40.733098,"LONG":-73.990279}},
{"type":"Feature","geometry":{"type":"Point","coordinates":[-73.989798,40.764092]},"properties":{"OBJECTID":55,"ID":55,"Name":"GC Warehouse NYC","Address":"417 W 50th St","Borough":"MANHATTAN","HouseNum":417,"Street":"W 50th St","BoroCode":1,"BIN":1026678,"LAT":40.764092,"LONG":-73.989798}},
{"type":"Feature","geometry":{"type":"Point","coordinates":[-73.950727,40.779757]},"properties":{"OBJECTID":56,"ID":56,"Name":"Safety Hardware Store","Address":"1713 2nd Ave","Borough":"MANHATTAN","HouseNum":1713,"Street":"2nd Ave","BoroCode":1,"BIN":1048852,"LAT":40.779757,"LONG":-73.950727}},
{"type":"Feature","geometry":{"type":"Point","coordinates":[-73.951273,40.774759]},"properties":{"OBJECTID":57,"ID":57,"Name":"New York Paint & Hardware","Address":"1587 1st Ave.","Borough":"MANHATTAN","HouseNum":1587,"Street":"1st Ave.","BoroCode":1,"BIN":1049892,"LAT":40.774759,"LONG":-73.951273}},
{"type":"Feature","geometry":{"type":"Point","coordinates":[-73.94345,40.80722]},"properties":{"OBJECTID":58,"ID":58,"Name":"Mushtari Hardware & Garden","Address":"31 W 125th St","Borough":"MANHATTAN","HouseNum":31,"Street":"W 125th St","BoroCode":1,"BIN":1053502,"LAT":40.80722,"LONG":-73.94345}},
{"type":"Feature","geometry":{"type":"Point","coordinates":[-73.991486,40.717911]},"properties":{"OBJECTID":59,"ID":59,"Name":"International Electrical & Hardware Supplies Corp","Address":"77 Allen St","Borough":"MANHATTAN","HouseNum":77,"Street":"Allen St","BoroCode":1,"BIN":1077619,"LAT":40.717911,"LONG":-73.991486}},
{"type":"Feature","geometry":{"type":"Point","coordinates":[-73.964687,40.80612]},"properties":{"OBJECTID":60,"ID":60,"Name":"University Hardware Housewares","Address":"2906 Broadway","Borough":"MANHATTAN","HouseNum":2906,"Street":"Broadway","BoroCode":1,"BIN":1057018,"LAT":40.80612,"LONG":-73.964687}},
{"type":"Feature","geometry":{"type":"Point","coordinates":[-73.954971,40.804563]},"properties":{"OBJECTID":61,"ID":61,"Name":"United Hardware","Address":"2160 Frederick Douglass Blvd","Borough":"MANHATTAN","HouseNum":2160,"Street":"Frederick Douglass Blvd","BoroCode":1,"BIN":1058363,"LAT":40.804563,"LONG":-73.954971}},
{"type":"Feature","geometry":{"type":"Point","coordinates":[-73.965318,40.759951]},"properties":{"OBJECTID":62,"ID":62,"Name":"The Brass Center","Address":"248 E 58th St","Borough":"MANHATTAN","HouseNum":248,"Street":"E 58th St","BoroCode":1,"BIN":1038620,"LAT":40.759951,"LONG":-73.965318}},
{"type":"Feature","geometry":{"type":"Point","coordinates":[-73.940171,40.798224]},"properties":{"OBJECTID":63,"ID":63,"Name":"Hakimi Hardware","Address":"2128 3rd Ave","Borough":"MANHATTAN","HouseNum":2128,"Street":"3rd Ave","BoroCode":1,"BIN":1052300,"LAT":40.798224,"LONG":-73.940171}},
{"type":"Feature","geometry":{"type":"Point","coordinates":[-73.989373,40.761781]},"properties":{"OBJECTID":64,"ID":64,"Name":"Home Improvement Manhattan NYC - ELRemodeling","Address":"352 W 48th St","Borough":"MANHATTAN","HouseNum":352,"Street":"W 48th St","BoroCode":1,"BIN":1025116,"LAT":40.761781,"LONG":-73.989373}},
{"type":"Feature","geometry":{"type":"Point","coordinates":[-73.94179883,40.79523875]},"properties":{"OBJECTID":65,"ID":65,"Name":"J & M Hardware & Houseware Inc","Address":"198 E 112th St","Borough":"MANHATTAN","HouseNum":198,"Street":"E 112th St","BoroCode":1,"BIN":0,"LAT":40.79523875,"LONG":-73.94179883}},
{"type":"Feature","geometry":{"type":"Point","coordinates":[-73.963868,40.798442]},"properties":{"OBJECTID":66,"ID":66,"Name":"105 Columbus Hardware","Address":"908 Columbus Ave","Borough":"MANHATTAN","HouseNum":908,"Street":"Columbus Ave","BoroCode":1,"BIN":1055921,"LAT":40.798442,"LONG":-73.963868}},
{"type":"Feature","geometry":{"type":"Point","coordinates":[-73.970853,40.788871]},"properties":{"OBJECTID":67,"ID":67,"Name":"Brickman's Columbus Ave","Address":"610 Columbus Ave","Borough":"MANHATTAN","HouseNum":610,"Street":"Columbus Ave","BoroCode":1,"BIN":1032439,"LAT":40.788871,"LONG":-73.970853}},
{"type":"Feature","geometry":{"type":"Point","coordinates":[-73.949071,40.826153]},"properties":{"OBJECTID":68,"ID":68,"Name":"Sugar Hill Hardware","Address":"529 W 145th St","Borough":"MANHATTAN","HouseNum":529,"Street":"W 145th St","BoroCode":1,"BIN":1061932,"LAT":40.826153,"LONG":-73.949071}},
{"type":"Feature","geometry":{"type":"Point","coordinates":[-74.010136,40.713286]},"properties":{"OBJECTID":69,"ID":69,"Name":"Home Perfect","Address":"100 Church St","Borough":"MANHATTAN","HouseNum":100,"Street":"Church St","BoroCode":1,"BIN":1001409,"LAT":40.713286,"LONG":-74.010136}},
{"type":"Feature","geometry":{"type":"Point","coordinates":[-73.992182,40.754499]},"properties":{"OBJECTID":70,"ID":70,"Name":"Scheman & Grant Hardware","Address":"545 8th Ave","Borough":"MANHATTAN","HouseNum":545,"Street":"8th Ave","BoroCode":1,"BIN":1013622,"LAT":40.754499,"LONG":-73.992182}},
{"type":"Feature","geometry":{"type":"Point","coordinates":[-73.991907,40.758616]},"properties":{"OBJECTID":71,"ID":71,"Name":"True Value","Address":"590 9th Ave","Borough":"MANHATTAN","HouseNum":590,"Street":"9th Ave","BoroCode":1,"BIN":1024935,"LAT":40.758616,"LONG":-73.991907}},
{"type":"Feature","geometry":{"type":"Point","coordinates":[-73.929851,40.822857]},"properties":{"OBJECTID":72,"ID":72,"Name":"The Home Depot","Address":"600 Exterior Street","Borough":"BRONX","HouseNum":600,"Street":"Exterior Street","BoroCode":2,"BIN":2119101,"LAT":40.822857,"LONG":-73.929851}},
{"type":"Feature","geometry":{"type":"Point","coordinates":[-73.839098,40.827197]},"properties":{"OBJECTID":73,"ID":73,"Name":"The Home Depot","Address":"2560 Bruckner Blvd","Borough":"BRONX","HouseNum":2560,"Street":"Bruckner Blvd","BoroCode":2,"BIN":2090618,"LAT":40.827197,"LONG":-73.839098}},
{"type":"Feature","geometry":{"type":"Point","coordinates":[-73.832752,40.861892]},"properties":{"OBJECTID":74,"ID":74,"Name":"The Home Depot","Address":"1806 E Gun Hill Rd","Borough":"BRONX","HouseNum":1806,"Street":"E Gun Hill Rd","BoroCode":2,"BIN":2100885,"LAT":40.861892,"LONG":-73.832752}},
{"type":"Feature","geometry":{"type":"Point","coordinates":[-73.918696,40.815113]},"properties":{"OBJECTID":75,"ID":75,"Name":"Nunez Depot","Address":"2800 3rd Ave","Borough":"BRONX","HouseNum":2800,"Street":"3rd Ave","BoroCode":2,"BIN":2000681,"LAT":40.815113,"LONG":-73.918696}},
{"type":"Feature","geometry":{"type":"Point","coordinates":[-73.902312,40.81297]},"properties":{"OBJECTID":76,"ID":76,"Name":"Morales Brothers Hardware (Southern Hardware Corp)","Address":"591 Southern Blvd","Borough":"BRONX","HouseNum":591,"Street":"Southern Blvd","BoroCode":2,"BIN":2005082,"LAT":40.81297,"LONG":-73.902312}},
{"type":"Feature","geometry":{"type":"Point","coordinates":[-73.86721,40.845276]},"properties":{"OBJECTID":77,"ID":77,"Name":"Van Nest Hardware","Address":"669 Morris Park Ave","Borough":"BRONX","HouseNum":669,"Street":"Morris Park Ave","BoroCode":2,"BIN":2043407,"LAT":40.845276,"LONG":-73.86721}},
{"type":"Feature","geometry":{"type":"Point","coordinates":[-73.851186,40.831393]},"properties":{"OBJECTID":78,"ID":78,"Name":"H & H Hardware","Address":"1171 Castle Hill Ave","Borough":"BRONX","HouseNum":1171,"Street":"Castle Hill Ave","BoroCode":2,"BIN":2026489,"LAT":40.831393,"LONG":-73.851186}},
{"type":"Feature","geometry":{"type":"Point","coordinates":[-73.902533,40.85444]},"properties":{"OBJECTID":79,"ID":79,"Name":"J T Hardware & Houseware Store","Address":"2107 Grand Concourse","Borough":"BRONX","HouseNum":2107,"Street":"Grand Concourse","BoroCode":2,"BIN":2013749,"LAT":40.85444,"LONG":-73.902533}},
{"type":"Feature","geometry":{"type":"Point","coordinates":[-73.913378,40.832154]},"properties":{"OBJECTID":80,"ID":80,"Name":"Dan Ray Supply True Value","Address":"309 E 167th St","Borough":"BRONX","HouseNum":309,"Street":"E 167th St","BoroCode":2,"BIN":2002288,"LAT":40.832154,"LONG":-73.913378}},
{"type":"Feature","geometry":{"type":"Point","coordinates":[-73.91485866,40.85053092]},"properties":{"OBJECTID":81,"ID":81,"Name":"NEW GENERATION HARDWARE STORE","Address":"1800 Dr Martin Luther King Blvd","Borough":"BRONX","HouseNum":1800,"Street":"Dr Martin Luther King Blvd","BoroCode":2,"BIN":0,"LAT":40.85053092,"LONG":-73.91485866}},
{"type":"Feature","geometry":{"type":"Point","coordinates":[-73.91668319,40.83440459]},"properties":{"OBJECTID":82,"ID":82,"Name":"Fredy's Hardware","Address":"199 E 167th St","Borough":"BRONX","HouseNum":199,"Street":"E 167th St","BoroCode":2,"BIN":0,"LAT":40.83440459,"LONG":-73.91668319}},
{"type":"Feature","geometry":{"type":"Point","coordinates":[-73.92159888,40.8360334]},"properties":{"OBJECTID":83,"ID":83,"Name":"Gonzalez Hardware","Address":"11 E 167th St","Borough":"BRONX","HouseNum":11,"Street":"E 167th St","BoroCode":2,"BIN":0,"LAT":40.8360334,"LONG":-73.92159888}},
{"type":"Feature","geometry":{"type":"Point","coordinates":[-73.90109,40.88366]},"properties":{"OBJECTID":84,"ID":84,"Name":"Ace Hardware New York","Address":"5760 Broadway","Borough":"BRONX","HouseNum":5760,"Street":"Broadway","BoroCode":2,"BIN":2094714,"LAT":40.88366,"LONG":-73.90109}},
{"type":"Feature","geometry":{"type":"Point","coordinates":[-73.89743602,40.82119743]},"properties":{"OBJECTID":85,"ID":85,"Name":"163 Progreso Hardware","Address":"921 E 163rd St","Borough":"BRONX","HouseNum":921,"Street":"E 163rd St","BoroCode":2,"BIN":0,"LAT":40.82119743,"LONG":-73.89743602}},
{"type":"Feature","geometry":{"type":"Point","coordinates":[-73.86234,40.81738]},"properties":{"OBJECTID":86,"ID":86,"Name":"Renel Hardware Inc","Address":"605 Soundview Ave","Borough":"BRONX","HouseNum":605,"Street":"Soundview Ave","BoroCode":2,"BIN":2021853,"LAT":40.81738,"LONG":-73.86234}},
{"type":"Feature","geometry":{"type":"Point","coordinates":[-73.92964746,40.81484177]},"properties":{"OBJECTID":87,"ID":87,"Name":"Statewide Supply","Address":"310 Walton Ave","Borough":"BRONX","HouseNum":310,"Street":"Walton Ave","BoroCode":2,"BIN":0,"LAT":40.81484177,"LONG":-73.92964746}},
{"type":"Feature","geometry":{"type":"Point","coordinates":[-73.90008174,40.86828722]},"properties":{"OBJECTID":88,"ID":88,"Name":"Vargas Hardware & Paint Store","Address":"63 W Kingsbridge Rd","Borough":"BRONX","HouseNum":63,"Street":"W Kingsbridge Rd","BoroCode":2,"BIN":0,"LAT":40.86828722,"LONG":-73.90008174}},
{"type":"Feature","geometry":{"type":"Point","coordinates":[-73.88436254,40.85397417]},"properties":{"OBJECTID":89,"ID":89,"Name":"Albahri Hardware & Houseware","Address":"696 E 187th St","Borough":"BRONX","HouseNum":696,"Street":"E 187th St","BoroCode":2,"BIN":0,"LAT":40.85397417,"LONG":-73.88436254}},
{"type":"Feature","geometry":{"type":"Point","coordinates":[-73.91839802,40.80254663]},"properties":{"OBJECTID":90,"ID":90,"Name":"S&J True Value","Address":"608 E 133rd St","Borough":"BRONX","HouseNum":608,"Street":"E 133rd St","BoroCode":2,"BIN":0,"LAT":40.80254663,"LONG":-73.91839802}},
{"type":"Feature","geometry":{"type":"Point","coordinates":[-73.83086661,40.84905584]},"properties":{"OBJECTID":91,"ID":91,"Name":"Pelham Bay Home Center","Address":"3073 Westchester Ave","Borough":"BRONX","HouseNum":3073,"Street":"Westchester Ave","BoroCode":2,"BIN":0,"LAT":40.84905584,"LONG":-73.83086661}},
{"type":"Feature","geometry":{"type":"Point","coordinates":[-73.85176,40.83582]},"properties":{"OBJECTID":92,"ID":92,"Name":"Castle Home Improvement, LLC Bronx","Address":"1402 Castle Hill Ave","Borough":"BRONX","HouseNum":1402,"Street":"Castle Hill Ave","BoroCode":2,"BIN":2041465,"LAT":40.83582,"LONG":-73.85176}},
{"type":"Feature","geometry":{"type":"Point","coordinates":[-73.92079,40.84069]},"properties":{"OBJECTID":93,"ID":93,"Name":"Ancla Hardware Ferreteria Store","Address":"1388 Jesup Ave","Borough":"BRONX","HouseNum":1388,"Street":"Jesup Ave","BoroCode":2,"BIN":2008657,"LAT":40.84069,"LONG":-73.92079}},
{"type":"Feature","geometry":{"type":"Point","coordinates":[-73.86199,40.83767]},"properties":{"OBJECTID":94,"ID":94,"Name":"1581 Hardware Corp.","Address":"1581 Unionport Rd","Borough":"BRONX","HouseNum":1581,"Street":"Unionport Rd","BoroCode":2,"BIN":2096612,"LAT":40.83767,"LONG":-73.86199}},
{"type":"Feature","geometry":{"type":"Point","coordinates":[-73.91106374,40.83804038]},"properties":{"OBJECTID":95,"ID":95,"Name":"Morris Hardware","Address":"271 E 170th St","Borough":"BRONX","HouseNum":271,"Street":"E 170th St","BoroCode":2,"BIN":0,"LAT":40.83804038,"LONG":-73.91106374}},
{"type":"Feature","geometry":{"type":"Point","coordinates":[-73.87683,40.82915]},"properties":{"OBJECTID":96,"ID":96,"Name":"Westchester Hardware Supply","Address":"1577 Westchester Ave","Borough":"BRONX","HouseNum":1577,"Street":"Westchester Ave","BoroCode":2,"BIN":2025283,"LAT":40.82915,"LONG":-73.87683}},
{"type":"Feature","geometry":{"type":"Point","coordinates":[-73.90534506,40.87940603]},"properties":{"OBJECTID":97,"ID":97,"Name":"DT Hardware And Houseware","Address":"217 W 231st St # A","Borough":"BRONX","HouseNum":217,"Street":"W 231st St # A","BoroCode":2,"BIN":0,"LAT":40.87940603,"LONG":-73.90534506}},
{"type":"Feature","geometry":{"type":"Point","coordinates":[-73.91257887,40.85102061]},"properties":{"OBJECTID":98,"ID":98,"Name":"Harrow Lumber & Hardware Co","Address":"75 W Tremont Ave","Borough":"BRONX","HouseNum":75,"Street":"W Tremont Ave","BoroCode":2,"BIN":0,"LAT":40.85102061,"LONG":-73.91257887}},
{"type":"Feature","geometry":{"type":"Point","coordinates":[-73.85538808,40.89748119]},"properties":{"OBJECTID":99,"ID":99,"Name":"NHS Hardware","Address":"4361 White Plains Rd","Borough":"BRONX","HouseNum":4361,"Street":"White Plains Rd","BoroCode":2,"BIN":0,"LAT":40.89748119,"LONG":-73.85538808}},
{"type":"Feature","geometry":{"type":"Point","coordinates":[-73.90794176,40.83593391]},"properties":{"OBJECTID":100,"ID":100,"Name":"Sma Garden Hardware Inc.","Address":"1363 Webster Ave","Borough":"BRONX","HouseNum":1363,"Street":"Webster Ave","BoroCode":2,"BIN":0,"LAT":40.83593391,"LONG":-73.90794176}},
{"type":"Feature","geometry":{"type":"Point","coordinates":[-73.9016221,40.85817196]},"properties":{"OBJECTID":101,"ID":101,"Name":"Sammy's Hardware & Plumbing Supplies","Address":"105 E 183rd St","Borough":"BRONX","HouseNum":105,"Street":"E 183rd St","BoroCode":2,"BIN":0,"LAT":40.85817196,"LONG":-73.9016221}},
{"type":"Feature","geometry":{"type":"Point","coordinates":[-73.89226639,40.82697021]},"properties":{"OBJECTID":102,"ID":102,"Name":"AA Hardware","Address":"1121 Southern Blvd","Borough":"BRONX","HouseNum":1121,"Street":"Southern Blvd","BoroCode":2,"BIN":0,"LAT":40.82697021,"LONG":-73.89226639}},
{"type":"Feature","geometry":{"type":"Point","coordinates":[-73.86559478,40.86564692]},"properties":{"OBJECTID":103,"ID":103,"Name":"Allerton Hardware & Discount","Address":"747 Allerton Ave","Borough":"BRONX","HouseNum":747,"Street":"Allerton Ave","BoroCode":2,"BIN":0,"LAT":40.86564692,"LONG":-73.86559478}},
{"type":"Feature","geometry":{"type":"Point","coordinates":[-73.90877929,40.85131612]},"properties":{"OBJECTID":104,"ID":104,"Name":"CS Brown Company Inc.","Address":"12 E Tremont Ave","Borough":"BRONX","HouseNum":12,"Street":"E Tremont Ave","BoroCode":2,"BIN":0,"LAT":40.85131612,"LONG":-73.90877929}},
{"type":"Feature","geometry":{"type":"Point","coordinates":[-73.92847,40.83419]},"properties":{"OBJECTID":105,"ID":105,"Name":"Highbridge Hardware Corp","Address":"1048 Ogden Ave","Borough":"BRONX","HouseNum":1048,"Street":"Ogden Ave","BoroCode":2,"BIN":2003211,"LAT":40.83419,"LONG":-73.92847}},
{"type":"Feature","geometry":{"type":"Point","coordinates":[-73.88852065,40.84439279]},"properties":{"OBJECTID":106,"ID":106,"Name":"AM Hardware & Discount Inc","Address":"765 E Tremont Ave","Borough":"BRONX","HouseNum":765,"Street":"E Tremont Ave","BoroCode":2,"BIN":0,"LAT":40.84439279,"LONG":-73.88852065}},
{"type":"Feature","geometry":{"type":"Point","coordinates":[-73.83071,40.84959]},"properties":{"OBJECTID":107,"ID":107,"Name":"Pelham Bay Discount & Hardware","Address":"3113B Westchester Ave","Borough":"BRONX","HouseNum":3113,"Street":"Westchester Ave","BoroCode":2,"BIN":2124414,"LAT":40.84959,"LONG":-73.83071}},
{"type":"Feature","geometry":{"type":"Point","coordinates":[-73.88865,40.81843]},"properties":{"OBJECTID":108,"ID":108,"Name":"163 Progreso Hardware","Address":"866 Hunts Point Ave","Borough":"BRONX","HouseNum":866,"Street":"Hunts Point Ave","BoroCode":2,"BIN":2006435,"LAT":40.81843,"LONG":-73.88865}},
{"type":"Feature","geometry":{"type":"Point","coordinates":[-73.90901,40.82272]},"properties":{"OBJECTID":109,"ID":109,"Name":"Jack's Hardware & Supply Co","Address":"3202 3rd Ave","Borough":"BRONX","HouseNum":3202,"Street":"3rd Ave","BoroCode":2,"BIN":2004365,"LAT":40.82272,"LONG":-73.90901}},
{"type":"Feature","geometry":{"type":"Point","coordinates":[-73.86648,40.8717]},"properties":{"OBJECTID":110,"ID":110,"Name":"Burke Hardware","Address":"715 Burke Ave","Borough":"BRONX","HouseNum":715,"Street":"Burke Ave","BoroCode":2,"BIN":2056236,"LAT":40.8717,"LONG":-73.86648}},
{"type":"Feature","geometry":{"type":"Point","coordinates":[-73.82826392,40.83364698]},"properties":{"OBJECTID":111,"ID":111,"Name":"Flannery's Home Center","Address":"3395 E Tremont Ave","Borough":"BRONX","HouseNum":3395,"Street":"E Tremont Ave","BoroCode":2,"BIN":0,"LAT":40.83364698,"LONG":-73.82826392}},
{"type":"Feature","geometry":{"type":"Point","coordinates":[-73.90748556,40.85320676]},"properties":{"OBJECTID":112,"ID":112,"Name":"Gabi's Hardware","Address":"2030 Jerome Ave","Borough":"BRONX","HouseNum":2030,"Street":"Jerome Ave","BoroCode":2,"BIN":0,"LAT":40.85320676,"LONG":-73.90748556}},
{"type":"Feature","geometry":{"type":"Point","coordinates":[-73.92002874,40.83508662]},"properties":{"OBJECTID":113,"ID":113,"Name":"Gerrys Hardware inc","Address":"82 E 167th St","Borough":"BRONX","HouseNum":82,"Street":"E 167th St","BoroCode":2,"BIN":0,"LAT":40.83508662,"LONG":-73.92002874}},
{"type":"Feature","geometry":{"type":"Point","coordinates":[-73.8883972,40.84378739]},"properties":{"OBJECTID":114,"ID":114,"Name":"784 Hardware","Address":"784 E Tremont Ave","Borough":"BRONX","HouseNum":784,"Street":"E Tremont Ave","BoroCode":2,"BIN":0,"LAT":40.84378739,"LONG":-73.8883972}},
{"type":"Feature","geometry":{"type":"Point","coordinates":[-73.90047,40.84681]},"properties":{"OBJECTID":115,"ID":115,"Name":"Roa Hardware Center, Corp","Address":"4175 Park Ave","Borough":"BRONX","HouseNum":4175,"Street":"Park Ave","BoroCode":2,"BIN":2009462,"LAT":40.84681,"LONG":-73.90047}},
{"type":"Feature","geometry":{"type":"Point","coordinates":[-73.86658,40.84486]},"properties":{"OBJECTID":116,"ID":116,"Name":"Ferreteria Apartment House Supply","Address":"678 Morris Park Ave","Borough":"BRONX","HouseNum":678,"Street":"Morris Park Ave","BoroCode":2,"BIN":2043017,"LAT":40.84486,"LONG":-73.86658}},
{"type":"Feature","geometry":{"type":"Point","coordinates":[-73.85454356,40.8547849]},"properties":{"OBJECTID":117,"ID":117,"Name":"AA2 Hardware","Address":"2014 Williamsbridge Rd","Borough":"BRONX","HouseNum":2014,"Street":"Williamsbridge Rd","BoroCode":2,"BIN":0,"LAT":40.8547849,"LONG":-73.85454356}},
{"type":"Feature","geometry":{"type":"Point","coordinates":[-73.89839543,40.82667237]},"properties":{"OBJECTID":118,"ID":118,"Name":"2 flags hardware","Address":"1190 Prospect Ave","Borough":"BRONX","HouseNum":1190,"Street":"Prospect Ave","BoroCode":2,"BIN":0,"LAT":40.82667237,"LONG":-73.89839543}},
{"type":"Feature","geometry":{"type":"Point","coordinates":[-73.87892596,40.87308984]},"properties":{"OBJECTID":119,"ID":119,"Name":"Jerry's Hardware","Address":"296 E 204th St","Borough":"BRONX","HouseNum":296,"Street":"E 204th St","BoroCode":2,"BIN":0,"LAT":40.87308984,"LONG":-73.87892596}},
{"type":"Feature","geometry":{"type":"Point","coordinates":[-73.88446452,40.87387294]},"properties":{"OBJECTID":120,"ID":120,"Name":"L&R Hardware-Ferreteria","Address":"242 E 204th St","Borough":"BRONX","HouseNum":242,"Street":"E 204th St","BoroCode":2,"BIN":0,"LAT":40.87387294,"LONG":-73.88446452}},
{"type":"Feature","geometry":{"type":"Point","coordinates":[-73.89771054,40.81690449]},"properties":{"OBJECTID":121,"ID":121,"Name":"The Promised Land Hardware Store LLC.","Address":"980 Longwood Ave","Borough":"BRONX","HouseNum":980,"Street":"Longwood Ave","BoroCode":2,"BIN":0,"LAT":40.81690449,"LONG":-73.89771054}},
{"type":"Feature","geometry":{"type":"Point","coordinates":[-73.8544,40.84925]},"properties":{"OBJECTID":122,"ID":122,"Name":"Superior Paint Hardware & Housewares","Address":"1059 Morris Park Ave","Borough":"BRONX","HouseNum":1059,"Street":"Morris Park Ave","BoroCode":2,"BIN":2045539,"LAT":40.84925,"LONG":-73.8544}},
{"type":"Feature","geometry":{"type":"Point","coordinates":[-73.86461015,40.85457035]},"properties":{"OBJECTID":123,"ID":123,"Name":"Mejia Hardware","Address":"775 Lydig Ave","Borough":"BRONX","HouseNum":775,"Street":"Lydig Ave","BoroCode":2,"BIN":0,"LAT":40.85457035,"LONG":-73.86461015}},
{"type":"Feature","geometry":{"type":"Point","coordinates":[-73.89930218,40.8306785]},"properties":{"OBJECTID":124,"ID":124,"Name":"Master Hardware","Address":"779 E 169th St","Borough":"BRONX","HouseNum":779,"Street":"E 169th St","BoroCode":2,"BIN":0,"LAT":40.8306785,"LONG":-73.89930218}},
{"type":"Feature","geometry":{"type":"Point","coordinates":[-73.90888592,40.82586533]},"properties":{"OBJECTID":125,"ID":125,"Name":"Schmuger Hardware","Address":"501 E 164th St","Borough":"BRONX","HouseNum":501,"Street":"E 164th St","BoroCode":2,"BIN":0,"LAT":40.82586533,"LONG":-73.90888592}},
{"type":"Feature","geometry":{"type":"Point","coordinates":[-73.89986847,40.84558232]},"properties":{"OBJECTID":126,"ID":126,"Name":"Best Value NY INC.","Address":"4130 Park Ave","Borough":"BRONX","HouseNum":4130,"Street":"Park Ave","BoroCode":2,"BIN":0,"LAT":40.84558232,"LONG":-73.89986847}},
{"type":"Feature","geometry":{"type":"Point","coordinates":[-73.86703185,40.86223187]},"properties":{"OBJECTID":127,"ID":127,"Name":"Harbor Freight Tools","Address":"2441 Boston Rd","Borough":"BRONX","HouseNum":2441,"Street":"Boston Rd","BoroCode":2,"BIN":0,"LAT":40.86223187,"LONG":-73.86703185}},
{"type":"Feature","geometry":{"type":"Point","coordinates":[-73.8991,40.8131]},"properties":{"OBJECTID":128,"ID":128,"Name":"J Line Inc","Address":"691 Bruckner Blvd","Borough":"BRONX","HouseNum":691,"Street":"Bruckner Blvd","BoroCode":2,"BIN":2094272,"LAT":40.8131,"LONG":-73.8991}},
{"type":"Feature","geometry":{"type":"Point","coordinates":[-73.86240516,40.83138995]},"properties":{"OBJECTID":129,"ID":129,"Name":"2 Flags Hardware Plumbing Electrical","Address":"1229 White Plains Rd","Borough":"BRONX","HouseNum":1229,"Street":"White Plains Rd","BoroCode":2,"BIN":0,"LAT":40.83138995,"LONG":-73.86240516}},
{"type":"Feature","geometry":{"type":"Point","coordinates":[-73.89935506,40.85710339]},"properties":{"OBJECTID":130,"ID":130,"Name":"M M & D Supplies","Address":"117 E 183rd St","Borough":"BRONX","HouseNum":117,"Street":"E 183rd St","BoroCode":2,"BIN":0,"LAT":40.85710339,"LONG":-73.89935506}},
{"type":"Feature","geometry":{"type":"Point","coordinates":[-73.88365,40.86779]},"properties":{"OBJECTID":131,"ID":131,"Name":"Bedford Hardware","Address":"391 Bedford Park Blvd","Borough":"BRONX","HouseNum":391,"Street":"Bedford Park Blvd","BoroCode":2,"BIN":2016448,"LAT":40.86779,"LONG":-73.88365}},
{"type":"Feature","geometry":{"type":"Point","coordinates":[-73.84017021,40.83519077]},"properties":{"OBJECTID":132,"ID":132,"Name":"Mensch Mill & Lumber (HQ)","Address":"1261 Commerce Ave","Borough":"BRONX","HouseNum":1261,"Street":"Commerce Ave","BoroCode":2,"BIN":0,"LAT":40.83519077,"LONG":-73.84017021}},
{"type":"Feature","geometry":{"type":"Point","coordinates":[-73.85274056,40.90088567]},"properties":{"OBJECTID":133,"ID":133,"Name":"Fairbanks Lumber True Value","Address":"4527 White Plains Rd","Borough":"BRONX","HouseNum":4527,"Street":"White Plains Rd","BoroCode":2,"BIN":0,"LAT":40.90088567,"LONG":-73.85274056}},
{"type":"Feature","geometry":{"type":"Point","coordinates":[-73.84954,40.90619]},"properties":{"OBJECTID":134,"ID":134,"Name":"The B Electric And Hardware","Address":"4807 White Plains Rd","Borough":"BRONX","HouseNum":4807,"Street":"White Plains Rd","BoroCode":2,"BIN":2095170,"LAT":40.90619,"LONG":-73.84954}},
{"type":"Feature","geometry":{"type":"Point","coordinates":[-73.89093896,40.86405528]},"properties":{"OBJECTID":135,"ID":135,"Name":"ELY Hardware","Address":"349 E 194th St","Borough":"BRONX","HouseNum":349,"Street":"E 194th St","BoroCode":2,"BIN":0,"LAT":40.86405528,"LONG":-73.89093896}},
{"type":"Feature","geometry":{"type":"Point","coordinates":[-73.89369688,40.8488523]},"properties":{"OBJECTID":136,"ID":136,"Name":"Landlords Depot","Address":"551 E 179th St","Borough":"BRONX","HouseNum":551,"Street":"E 179th St","BoroCode":2,"BIN":0,"LAT":40.8488523,"LONG":-73.89369688}},
{"type":"Feature","geometry":{"type":"Point","coordinates":[-73.88778571,40.83781711]},"properties":{"OBJECTID":137,"ID":137,"Name":"S and c hardware","Address":"1773 Southern Blvd","Borough":"BRONX","HouseNum":1773,"Street":"Southern Blvd","BoroCode":2,"BIN":0,"LAT":40.83781711,"LONG":-73.88778571}},
{"type":"Feature","geometry":{"type":"Point","coordinates":[-73.86692289,40.86331902]},"properties":{"OBJECTID":138,"ID":138,"Name":"Azteca Hardware Store","Address":"709 Mace Ave","Borough":"BRONX","HouseNum":709,"Street":"Mace Ave","BoroCode":2,"BIN":0,"LAT":40.86331902,"LONG":-73.86692289}},
{"type":"Feature","geometry":{"type":"Point","coordinates":[-73.90232883,40.81954795]},"properties":{"OBJECTID":139,"ID":139,"Name":"A-Z Apartment Building Supply","Address":"829 Westchester Ave","Borough":"BRONX","HouseNum":829,"Street":"Westchester Ave","BoroCode":2,"BIN":0,"LAT":40.81954795,"LONG":-73.90232883}},
{"type":"Feature","geometry":{"type":"Point","coordinates":[-73.90487663,40.86238076]},"properties":{"OBJECTID":140,"ID":140,"Name":"Tejada Hardware","Address":"2362 University Ave","Borough":"BRONX","HouseNum":2362,"Street":"University Ave","BoroCode":2,"BIN":0,"LAT":40.86238076,"LONG":-73.90487663}},
{"type":"Feature","geometry":{"type":"Point","coordinates":[-73.85245,40.83572]},"properties":{"OBJECTID":141,"ID":141,"Name":"Friends Double Discount","Address":"1371 Castle Hill Ave","Borough":"BRONX","HouseNum":1371,"Street":"Castle Hill Ave","BoroCode":2,"BIN":2029042,"LAT":40.83572,"LONG":-73.85245}},
{"type":"Feature","geometry":{"type":"Point","coordinates":[-73.90979839,40.85387297]},"properties":{"OBJECTID":142,"ID":142,"Name":"99 Cent Discount & Hardware Store","Address":"52b W Burnside Ave","Borough":"BRONX","HouseNum":52,"Street":"W Burnside Ave","BoroCode":2,"BIN":0,"LAT":40.85387297,"LONG":-73.90979839}},
{"type":"Feature","geometry":{"type":"Point","coordinates":[-73.90018585,40.8315603]},"properties":{"OBJECTID":143,"ID":143,"Name":"Richie's Hardware","Address":"1309 Boston Rd","Borough":"BRONX","HouseNum":1309,"Street":"Boston Rd","BoroCode":2,"BIN":0,"LAT":40.8315603,"LONG":-73.90018585}},
{"type":"Feature","geometry":{"type":"Point","coordinates":[-73.867467,40.85318976]},"properties":{"OBJECTID":144,"ID":144,"Name":"Star Gate & Empire Locksmith, Inc.","Address":"2094 White Plains Rd","Borough":"BRONX","HouseNum":2094,"Street":"White Plains Rd","BoroCode":2,"BIN":0,"LAT":40.85318976,"LONG":-73.867467}},
{"type":"Feature","geometry":{"type":"Point","coordinates":[-73.85493,40.87188]},"properties":{"OBJECTID":145,"ID":145,"Name":"Skaller Supply","Address":"3232 Boston Rd","Borough":"BRONX","HouseNum":3232,"Street":"Boston Rd","BoroCode":2,"BIN":2056680,"LAT":40.87188,"LONG":-73.85493}},
{"type":"Feature","geometry":{"type":"Point","coordinates":[-73.89974,40.84583]},"properties":{"OBJECTID":146,"ID":146,"Name":"Ace kitchens and Appliances","Address":"4144 Park Ave","Borough":"BRONX","HouseNum":4144,"Street":"Park Ave","BoroCode":2,"BIN":2009522,"LAT":40.84583,"LONG":-73.89974}},
{"type":"Feature","geometry":{"type":"Point","coordinates":[-73.85323,40.84915]},"properties":{"OBJECTID":147,"ID":147,"Name":"Longo Kitchen and Bath","Address":"1084 Morris Park Ave","Borough":"BRONX","HouseNum":1084,"Street":"Morris Park Ave","BoroCode":2,"BIN":2045009,"LAT":40.84915,"LONG":-73.85323}},
{"type":"Feature","geometry":{"type":"Point","coordinates":[-73.90086,40.88404]},"properties":{"OBJECTID":148,"ID":149,"Name":"Riverdale Home Center","Address":"5782 Broadway","Borough":"BRONX","HouseNum":5782,"Street":"Broadway","BoroCode":2,"BIN":2016176,"LAT":40.88404,"LONG":-73.90086}},
{"type":"Feature","geometry":{"type":"Point","coordinates":[-73.99505,40.67215]},"properties":{"OBJECTID":149,"ID":150,"Name":"Lowe's Home Improvement","Address":"118 2nd Ave","Borough":"BROOKLYN","HouseNum":118,"Street":"2nd Ave","BoroCode":3,"BIN":3022201,"LAT":40.67215,"LONG":-73.99505}},
{"type":"Feature","geometry":{"type":"Point","coordinates":[-73.95285,40.69185]},"properties":{"OBJECTID":150,"ID":151,"Name":"The Home Depot","Address":"230 Nostrand Ave.","Borough":"BROOKLYN","HouseNum":230,"Street":"Nostrand Ave.","BoroCode":3,"BIN":3823194,"LAT":40.69185,"LONG":-73.95285}},
{"type":"Feature","geometry":{"type":"Point","coordinates":[-73.95025,40.71381]},"properties":{"OBJECTID":151,"ID":152,"Name":"Crest Hardware & Urban Garden Center","Address":"558 Metropolitan Ave","Borough":"BROOKLYN","HouseNum":558,"Street":"Metropolitan Ave","BoroCode":3,"BIN":3068782,"LAT":40.71381,"LONG":-73.95025}},
{"type":"Feature","geometry":{"type":"Point","coordinates":[-73.9985,40.66777]},"properties":{"OBJECTID":152,"ID":153,"Name":"The Home Depot","Address":"550 Hamilton Ave","Borough":"BROOKLYN","HouseNum":550,"Street":"Hamilton Ave","BoroCode":3,"BIN":3008890,"LAT":40.66777,"LONG":-73.9985}},
{"type":"Feature","geometry":{"type":"Point","coordinates":[-73.95429,40.69953]},"properties":{"OBJECTID":153,"ID":154,"Name":"House & Home Hardware","Address":"519 Flushing Ave","Borough":"BROOKLYN","HouseNum":519,"Street":"Flushing Ave","BoroCode":3,"BIN":3335449,"LAT":40.69953,"LONG":-73.95429}},
{"type":"Feature","geometry":{"type":"Point","coordinates":[-73.99129,40.69127]},"properties":{"OBJECTID":154,"ID":155,"Name":"Ace Hardware Bruno's Home Center","Address":"85 Court St","Borough":"BROOKLYN","HouseNum":85,"Street":"Court St","BoroCode":3,"BIN":3002649,"LAT":40.69127,"LONG":-73.99129}},
{"type":"Feature","geometry":{"type":"Point","coordinates":[-73.94244,40.70461]},"properties":{"OBJECTID":155,"ID":156,"Name":"Florama Hardware","Address":"98 Graham Ave","Borough":"BROOKLYN","HouseNum":98,"Street":"Graham Ave","BoroCode":3,"BIN":3325952,"LAT":40.70461,"LONG":-73.94244}},
{"type":"Feature","geometry":{"type":"Point","coordinates":[-73.95623,40.67631]},"properties":{"OBJECTID":156,"ID":157,"Name":"R T Building Supplies and Hardware","Address":"646 Franklin Ave","Borough":"BROOKLYN","HouseNum":646,"Street":"Franklin Ave","BoroCode":3,"BIN":3028310,"LAT":40.67631,"LONG":-73.95623}},
{"type":"Feature","geometry":{"type":"Point","coordinates":[-73.91788,40.67641]},"properties":{"OBJECTID":157,"ID":158,"Name":"Park Ave True Value Home Center","Address":"2074 Atlantic Ave","Borough":"BROOKLYN","HouseNum":2074,"Street":"Atlantic Ave","BoroCode":3,"BIN":3391302,"LAT":40.67641,"LONG":-73.91788}},
{"type":"Feature","geometry":{"type":"Point","coordinates":[-73.95917,40.71243]},"properties":{"OBJECTID":158,"ID":159,"Name":"B & G Hardware","Address":"210 Roebling St","Borough":"BROOKLYN","HouseNum":210,"Street":"Roebling St","BoroCode":3,"BIN":3062989,"LAT":40.71243,"LONG":-73.95917}},
{"type":"Feature","geometry":{"type":"Point","coordinates":[-73.86861,40.6537]},"properties":{"OBJECTID":159,"ID":160,"Name":"The Home Depot","Address":"579 Gateway Dr","Borough":"BROOKLYN","HouseNum":579,"Street":"Gateway Dr","BoroCode":3,"BIN":3348834,"LAT":40.6537,"LONG":-73.86861}},
{"type":"Feature","geometry":{"type":"Point","coordinates":[-73.91922836,40.61172317]},"properties":{"OBJECTID":160,"ID":161,"Name":"Lowe's Home Improvement","Address":"5602 Avenue U","Borough":"BROOKLYN","HouseNum":5602,"Street":"Avenue U","BoroCode":3,"BIN":0,"LAT":40.61172317,"LONG":-73.91922836}},
{"type":"Feature","geometry":{"type":"Point","coordinates":[-73.96737,40.69305]},"properties":{"OBJECTID":161,"ID":162,"Name":"Clinton Hill Ace Hardware","Address":"452 Myrtle Ave","Borough":"BROOKLYN","HouseNum":452,"Street":"Myrtle Ave","BoroCode":3,"BIN":3054813,"LAT":40.69305,"LONG":-73.96737}},
{"type":"Feature","geometry":{"type":"Point","coordinates":[-73.97752,40.68119]},"properties":{"OBJECTID":162,"ID":163,"Name":"Brooklyn Hardware Supply co","Address":"64 5th Ave","Borough":"BROOKLYN","HouseNum":64,"Street":"5th Ave","BoroCode":3,"BIN":3018547,"LAT":40.68119,"LONG":-73.97752}},
{"type":"Feature","geometry":{"type":"Point","coordinates":[-73.93530236,40.6627013]},"properties":{"OBJECTID":163,"ID":164,"Name":"Hardware Express True Value","Address":"829 E New York Ave","Borough":"BROOKLYN","HouseNum":829,"Street":"E New York Ave","BoroCode":3,"BIN":0,"LAT":40.6627013,"LONG":-73.93530236}},
{"type":"Feature","geometry":{"type":"Point","coordinates":[-73.95645,40.71931]},"properties":{"OBJECTID":164,"ID":165,"Name":"Aurora Hardware & Locksmith","Address":"136 Bedford Ave","Borough":"BROOKLYN","HouseNum":136,"Street":"Bedford Ave","BoroCode":3,"BIN":3061680,"LAT":40.71931,"LONG":-73.95645}},
{"type":"Feature","geometry":{"type":"Point","coordinates":[-73.97824,40.67926]},"properties":{"OBJECTID":165,"ID":166,"Name":"R & A Hardware","Address":"109 5th Ave","Borough":"BROOKLYN","HouseNum":109,"Street":"5th Ave","BoroCode":3,"BIN":3018993,"LAT":40.67926,"LONG":-73.97824}},
{"type":"Feature","geometry":{"type":"Point","coordinates":[-73.94831393,40.68021214]},"properties":{"OBJECTID":166,"ID":167,"Name":"Fulton Home Center and Hardware Corporation","Address":"1310 Fulton St","Borough":"BROOKLYN","HouseNum":1310,"Street":"Fulton St","BoroCode":3,"BIN":0,"LAT":40.68021214,"LONG":-73.94831393}},
{"type":"Feature","geometry":{"type":"Point","coordinates":[-73.95039,40.65586]},"properties":{"OBJECTID":167,"ID":168,"Name":"Home value hardware","Address":"1280 Nostrand Ave.","Borough":"BROOKLYN","HouseNum":1280,"Street":"Nostrand Ave.","BoroCode":3,"BIN":3348903,"LAT":40.65586,"LONG":-73.95039}},
{"type":"Feature","geometry":{"type":"Point","coordinates":[-73.9483,40.68057]},"properties":{"OBJECTID":168,"ID":169,"Name":"Big Brothers Discount Hardware","Address":"1327 Fulton St","Borough":"BROOKLYN","HouseNum":1327,"Street":"Fulton St","BoroCode":3,"BIN":3053251,"LAT":40.68057,"LONG":-73.9483}},
{"type":"Feature","geometry":{"type":"Point","coordinates":[-73.98913,40.6375]},"properties":{"OBJECTID":169,"ID":170,"Name":"13th Avenue Home Center","Address":"4405 13th Ave","Borough":"BROOKLYN","HouseNum":4405,"Street":"13th Ave","BoroCode":3,"BIN":3136462,"LAT":40.6375,"LONG":-73.98913}},
{"type":"Feature","geometry":{"type":"Point","coordinates":[-73.91668705,40.61262112]},"properties":{"OBJECTID":170,"ID":171,"Name":"The Home Depot","Address":"5700 Avenue U","Borough":"BROOKLYN","HouseNum":5700,"Street":"Avenue U","BoroCode":3,"BIN":0,"LAT":40.61262112,"LONG":-73.91668705}},
{"type":"Feature","geometry":{"type":"Point","coordinates":[-73.96282235,40.6742043]},"properties":{"OBJECTID":171,"ID":172,"Name":"Mayday Hardware","Address":"755 Washington Ave","Borough":"BROOKLYN","HouseNum":755,"Street":"Washington Ave","BoroCode":3,"BIN":0,"LAT":40.6742043,"LONG":-73.96282235}},
{"type":"Feature","geometry":{"type":"Point","coordinates":[-73.92834117,40.67066277]},"properties":{"OBJECTID":172,"ID":173,"Name":"Crown hardware and plumbing","Address":"1503 St Johns Pl","Borough":"BROOKLYN","HouseNum":1503,"Street":"St Johns Pl","BoroCode":3,"BIN":0,"LAT":40.67066277,"LONG":-73.92834117}},
{"type":"Feature","geometry":{"type":"Point","coordinates":[-73.97562,40.68069]},"properties":{"OBJECTID":173,"ID":174,"Name":"Mazzone Ace Hardware","Address":"476 Bergen St","Borough":"BROOKLYN","HouseNum":476,"Street":"Bergen St","BoroCode":3,"BIN":3018599,"LAT":40.68069,"LONG":-73.97562}},
{"type":"Feature","geometry":{"type":"Point","coordinates":[-73.98534,40.66989]},"properties":{"OBJECTID":174,"ID":175,"Name":"Leopoldi Hardware","Address":"415 5th Ave","Borough":"BROOKLYN","HouseNum":415,"Street":"5th Ave","BoroCode":3,"BIN":3021881,"LAT":40.66989,"LONG":-73.98534}},
{"type":"Feature","geometry":{"type":"Point","coordinates":[-73.95626,40.70273]},"properties":{"OBJECTID":175,"ID":176,"Name":"Segedin Discount Hardware & Housware","Address":"179 Lee Ave","Borough":"BROOKLYN","HouseNum":179,"Street":"Lee Ave","BoroCode":3,"BIN":3060813,"LAT":40.70273,"LONG":-73.95626}},
{"type":"Feature","geometry":{"type":"Point","coordinates":[-73.97794,40.67085]},"properties":{"OBJECTID":176,"ID":177,"Name":"Tarzian Hardware","Address":"193 7th Ave","Borough":"BROOKLYN","HouseNum":193,"Street":"7th Ave","BoroCode":3,"BIN":3025285,"LAT":40.67085,"LONG":-73.97794}},
{"type":"Feature","geometry":{"type":"Point","coordinates":[-73.96522,40.68288]},"properties":{"OBJECTID":177,"ID":178,"Name":"Do it Best Hardware of Clinton Hill Benjamin Moore paint store","Address":"900 Fulton St","Borough":"BROOKLYN","HouseNum":900,"Street":"Fulton St","BoroCode":3,"BIN":3399792,"LAT":40.68288,"LONG":-73.96522}},
{"type":"Feature","geometry":{"type":"Point","coordinates":[-73.98997,40.66434]},"properties":{"OBJECTID":178,"ID":179,"Name":"Park Slope Hardware","Address":"593 5th Ave","Borough":"BROOKLYN","HouseNum":593,"Street":"5th Ave","BoroCode":3,"BIN":3024168,"LAT":40.66434,"LONG":-73.98997}},
{"type":"Feature","geometry":{"type":"Point","coordinates":[-73.93891,40.68006]},"properties":{"OBJECTID":179,"ID":180,"Name":"Prosperity Hardware Store","Address":"1559 Fulton St","Borough":"BROOKLYN","HouseNum":1559,"Street":"Fulton St","BoroCode":3,"BIN":3338753,"LAT":40.68006,"LONG":-73.93891}},
{"type":"Feature","geometry":{"type":"Point","coordinates":[-73.94955,40.67726]},"properties":{"OBJECTID":180,"ID":181,"Name":"Garvey's Hardware","Address":"583 Nostrand Ave.","Borough":"BROOKLYN","HouseNum":583,"Street":"Nostrand Ave.","BoroCode":3,"BIN":3030035,"LAT":40.67726,"LONG":-73.94955}},
{"type":"Feature","geometry":{"type":"Point","coordinates":[-73.99042,40.66464]},"properties":{"OBJECTID":181,"ID":182,"Name":"CNS Family Hardware","Address":"584 5th Ave","Borough":"BROOKLYN","HouseNum":584,"Street":"5th Ave","BoroCode":3,"BIN":3024135,"LAT":40.66464,"LONG":-73.99042}},
{"type":"Feature","geometry":{"type":"Point","coordinates":[-73.99265,40.66257]},"properties":{"OBJECTID":182,"ID":183,"Name":"Greschlers Hardware","Address":"660 5th Ave","Borough":"BROOKLYN","HouseNum":660,"Street":"5th Ave","BoroCode":3,"BIN":3800409,"LAT":40.66257,"LONG":-73.99265}},
{"type":"Feature","geometry":{"type":"Point","coordinates":[-74.0055,40.65012]},"properties":{"OBJECTID":183,"ID":184,"Name":"Hardware store N discount corp","Address":"4106 5th Ave","Borough":"BROOKLYN","HouseNum":4106,"Street":"5th Ave","BoroCode":3,"BIN":3010747,"LAT":40.65012,"LONG":-74.0055}},
{"type":"Feature","geometry":{"type":"Point","coordinates":[-73.96121251,40.70859531]},"properties":{"OBJECTID":184,"ID":185,"Name":"Wholesome Hardware","Address":"326 Roebling St","Borough":"BROOKLYN","HouseNum":326,"Street":"Roebling St","BoroCode":3,"BIN":0,"LAT":40.70859531,"LONG":-73.96121251}},
{"type":"Feature","geometry":{"type":"Point","coordinates":[-73.98668997,40.66074563]},"properties":{"OBJECTID":185,"ID":186,"Name":"Prospect Hardware","Address":"517 7th Ave","Borough":"BROOKLYN","HouseNum":517,"Street":"7th Ave","BoroCode":3,"BIN":0,"LAT":40.66074563,"LONG":-73.98668997}},
{"type":"Feature","geometry":{"type":"Point","coordinates":[-73.98547,40.6425]},"properties":{"OBJECTID":186,"ID":187,"Name":"Brooklyn Hardware supplies","Address":"1260 36th St","Borough":"BROOKLYN","HouseNum":1260,"Street":"36th St","BoroCode":3,"BIN":3123192,"LAT":40.6425,"LONG":-73.98547}},
{"type":"Feature","geometry":{"type":"Point","coordinates":[-73.99823,40.6781]},"properties":{"OBJECTID":187,"ID":188,"Name":"Mazzone Hardware","Address":"470 Court St","Borough":"BROOKLYN","HouseNum":470,"Street":"Court St","BoroCode":3,"BIN":3005422,"LAT":40.6781,"LONG":-73.99823}},
{"type":"Feature","geometry":{"type":"Point","coordinates":[-74.02876,40.62828]},"properties":{"OBJECTID":188,"ID":189,"Name":"United True Value Hardware","Address":"7905 3rd Ave","Borough":"BROOKLYN","HouseNum":7905,"Street":"3rd Ave","BoroCode":3,"BIN":3336330,"LAT":40.62828,"LONG":-74.02876}},
{"type":"Feature","geometry":{"type":"Point","coordinates":[-73.94834,40.64228]},"properties":{"OBJECTID":189,"ID":190,"Name":"Nostrand True Value Hardware","Address":"1785 Nostrand Ave.","Borough":"BROOKLYN","HouseNum":1785,"Street":"Nostrand Ave.","BoroCode":3,"BIN":3111295,"LAT":40.64228,"LONG":-73.94834}},
{"type":"Feature","geometry":{"type":"Point","coordinates":[-73.9847,40.63216]},"properties":{"OBJECTID":190,"ID":191,"Name":"16th Avenue Home Center","Address":"4704 16th Ave","Borough":"BROOKLYN","HouseNum":4704,"Street":"16th Ave","BoroCode":3,"BIN":3128801,"LAT":40.63216,"LONG":-73.9847}},
{"type":"Feature","geometry":{"type":"Point","coordinates":[-73.96089,40.65968]},"properties":{"OBJECTID":191,"ID":192,"Name":"Flat Hardware","Address":"572 Flatbush Ave","Borough":"BROOKLYN","HouseNum":572,"Street":"Flatbush Ave","BoroCode":3,"BIN":3403976,"LAT":40.65968,"LONG":-73.96089}},
{"type":"Feature","geometry":{"type":"Point","coordinates":[-73.96928,40.67929]},"properties":{"OBJECTID":192,"ID":193,"Name":"Qualified Hardware","Address":"614 Bergen St","Borough":"BROOKLYN","HouseNum":614,"Street":"Bergen St","BoroCode":3,"BIN":3330653,"LAT":40.67929,"LONG":-73.96928}},
{"type":"Feature","geometry":{"type":"Point","coordinates":[-73.93749044,40.67059771]},"properties":{"OBJECTID":193,"ID":194,"Name":"Georges True Value Hardware","Address":"1234 St Johns Pl","Borough":"BROOKLYN","HouseNum":1234,"Street":"St Johns Pl","BoroCode":3,"BIN":0,"LAT":40.67059771,"LONG":-73.93749044}},
{"type":"Feature","geometry":{"type":"Point","coordinates":[-73.9788017,40.64063361]},"properties":{"OBJECTID":194,"ID":195,"Name":"CITI HARDWARE & LUMBER INC","Address":"557B McDonald Ave","Borough":"BROOKLYN","HouseNum":557,"Street":"McDonald Ave","BoroCode":3,"BIN":0,"LAT":40.64063361,"LONG":-73.9788017}},
{"type":"Feature","geometry":{"type":"Point","coordinates":[-73.90801,40.69041]},"properties":{"OBJECTID":195,"ID":196,"Name":"Nat's Hardware","Address":"576 Wilson Ave","Borough":"BROOKLYN","HouseNum":576,"Street":"Wilson Ave","BoroCode":3,"BIN":3079292,"LAT":40.69041,"LONG":-73.90801}},
{"type":"Feature","geometry":{"type":"Point","coordinates":[-73.9881,40.58142]},"properties":{"OBJECTID":196,"ID":197,"Name":"The Home Depot","Address":"2970 Cropsey Ave","Borough":"BROOKLYN","HouseNum":2970,"Street":"Cropsey Ave","BoroCode":3,"BIN":3348838,"LAT":40.58142,"LONG":-73.9881}},
{"type":"Feature","geometry":{"type":"Point","coordinates":[-73.94202,40.66802]},"properties":{"OBJECTID":197,"ID":198,"Name":"Weinsteins","Address":"327 Kingston Ave","Borough":"BROOKLYN","HouseNum":327,"Street":"Kingston Ave","BoroCode":3,"BIN":3033378,"LAT":40.66802,"LONG":-73.94202}},
{"type":"Feature","geometry":{"type":"Point","coordinates":[-73.96722692,40.63286129]},"properties":{"OBJECTID":198,"ID":199,"Name":"Brooklyn Paint & Home Center","Address":"1010 Coney Island Ave","Borough":"BROOKLYN","HouseNum":1010,"Street":"Coney Island Ave","BoroCode":3,"BIN":0,"LAT":40.63286129,"LONG":-73.96722692}},
{"type":"Feature","geometry":{"type":"Point","coordinates":[-73.93774,40.64137]},"properties":{"OBJECTID":199,"ID":200,"Name":"Brooklyn Building supply & Hardware Inc","Address":"4104 Avenue D","Borough":"BROOKLYN","HouseNum":4104,"Street":"Avenue D","BoroCode":3,"BIN":3112743,"LAT":40.64137,"LONG":-73.93774}},
{"type":"Feature","geometry":{"type":"Point","coordinates":[-73.93652,40.64145]},"properties":{"OBJECTID":200,"ID":201,"Name":"Murry's True Value","Address":"4214 Avenue D","Borough":"BROOKLYN","HouseNum":4214,"Street":"Avenue D","BoroCode":3,"BIN":3112826,"LAT":40.64145,"LONG":-73.93652}},
{"type":"Feature","geometry":{"type":"Point","coordinates":[-73.93154578,40.65897991]},"properties":{"OBJECTID":201,"ID":202,"Name":"New York Lumber Co Inc","Address":"600 Utica Ave","Borough":"BROOKLYN","HouseNum":600,"Street":"Utica Ave","BoroCode":3,"BIN":0,"LAT":40.65897991,"LONG":-73.93154578}},
{"type":"Feature","geometry":{"type":"Point","coordinates":[-73.9529,40.6761]},"properties":{"OBJECTID":202,"ID":203,"Name":"Crown Heights Hardware","Address":"1373 Bedford Ave","Borough":"BROOKLYN","HouseNum":1373,"Street":"Bedford Ave","BoroCode":3,"BIN":3805761,"LAT":40.6761,"LONG":-73.9529}},
{"type":"Feature","geometry":{"type":"Point","coordinates":[-74.02093158,40.64346724]},"properties":{"OBJECTID":203,"ID":204,"Name":"Majestic Home Improvement","Address":"241 59th St","Borough":"BROOKLYN","HouseNum":241,"Street":"59th St","BoroCode":3,"BIN":0,"LAT":40.64346724,"LONG":-74.02093158}},
{"type":"Feature","geometry":{"type":"Point","coordinates":[-73.97386,40.6326]},"properties":{"OBJECTID":204,"ID":205,"Name":"Full Line Hardware & Houseware","Address":"4018 18th Ave","Borough":"BROOKLYN","HouseNum":4018,"Street":"18th Ave","BoroCode":3,"BIN":3127623,"LAT":40.6326,"LONG":-73.97386}},
{"type":"Feature","geometry":{"type":"Point","coordinates":[-73.93166,40.6659]},"properties":{"OBJECTID":205,"ID":206,"Name":"Yahya hardware Store","Address":"354 Utica Ave","Borough":"BROOKLYN","HouseNum":354,"Street":"Utica Ave","BoroCode":3,"BIN":3038124,"LAT":40.6659,"LONG":-73.93166}},
{"type":"Feature","geometry":{"type":"Point","coordinates":[-73.99222819,40.60130181]},"properties":{"OBJECTID":206,"ID":207,"Name":"Best Buys True Value","Address":"2255 86th St","Borough":"BROOKLYN","HouseNum":2255,"Street":"86th St","BoroCode":3,"BIN":0,"LAT":40.60130181,"LONG":-73.99222819}},
{"type":"Feature","geometry":{"type":"Point","coordinates":[-73.90233939,40.75795299]},"properties":{"OBJECTID":207,"ID":208,"Name":"Richelieu Hardware","Address":"60-01 31st Ave","Borough":"QUEENS","HouseNum":6001,"Street":"31st Ave","BoroCode":3,"BIN":0,"LAT":40.75795299,"LONG":-73.90233939}},
{"type":"Feature","geometry":{"type":"Point","coordinates":[-73.98085911,40.59598147]},"properties":{"OBJECTID":208,"ID":209,"Name":"Ihome Building Supply INC ????????","Address":"96 Avenue U","Borough":"BROOKLYN","HouseNum":96,"Street":"Avenue U","BoroCode":3,"BIN":0,"LAT":40.59598147,"LONG":-73.98085911}},
{"type":"Feature","geometry":{"type":"Point","coordinates":[-73.97758,40.63106]},"properties":{"OBJECTID":209,"ID":210,"Name":"Deco Ware Hardware","Address":"944 McDonald Ave","Borough":"BROOKLYN","HouseNum":944,"Street":"McDonald Ave","BoroCode":3,"BIN":3336276,"LAT":40.63106,"LONG":-73.97758}},
{"type":"Feature","geometry":{"type":"Point","coordinates":[-73.96288,40.64978]},"properties":{"OBJECTID":210,"ID":211,"Name":"Ocean Hardware depot","Address":"1807 Church Ave","Borough":"BROOKLYN","HouseNum":1807,"Street":"Church Ave","BoroCode":3,"BIN":3116521,"LAT":40.64978,"LONG":-73.96288}},
{"type":"Feature","geometry":{"type":"Point","coordinates":[-73.98504316,40.59740949]},"properties":{"OBJECTID":211,"ID":212,"Name":"Wonder House Supply INC.","Address":"2019 Stillwell Ave","Borough":"BROOKLYN","HouseNum":2019,"Street":"Stillwell Ave","BoroCode":3,"BIN":0,"LAT":40.59740949,"LONG":-73.98504316}},
{"type":"Feature","geometry":{"type":"Point","coordinates":[-73.93179,40.60917]},"properties":{"OBJECTID":212,"ID":213,"Name":"Marine Park Hardware & Benjamin Moore Paints","Address":"3502 Ave. S","Borough":"BROOKLYN","HouseNum":3502,"Street":"Ave. S","BoroCode":3,"BIN":3240913,"LAT":40.60917,"LONG":-73.93179}},
{"type":"Feature","geometry":{"type":"Point","coordinates":[-73.99394,40.63367]},"properties":{"OBJECTID":213,"ID":214,"Name":"Table Top Shop Inc","Address":"5118 13th Ave","Borough":"BROOKLYN","HouseNum":5118,"Street":"13th Ave","BoroCode":3,"BIN":3138366,"LAT":40.63367,"LONG":-73.99394}},
{"type":"Feature","geometry":{"type":"Point","coordinates":[-73.89974,40.63613]},"properties":{"OBJECTID":214,"ID":215,"Name":"One Stop Hardware II","Address":"9105 Avenue L","Borough":"BROOKLYN","HouseNum":9105,"Street":"Avenue L","BoroCode":3,"BIN":3231578,"LAT":40.63613,"LONG":-73.89974}},
{"type":"Feature","geometry":{"type":"Point","coordinates":[-73.97369,40.67841]},"properties":{"OBJECTID":215,"ID":217,"Name":"Allstar Locksmith and Hardware","Address":"284 Flatbush Ave","Borough":"BROOKLYN","HouseNum":284,"Street":"Flatbush Ave","BoroCode":3,"BIN":3018943,"LAT":40.67841,"LONG":-73.97369}},
{"type":"Feature","geometry":{"type":"Point","coordinates":[-73.97856,40.63627]},"properties":{"OBJECTID":216,"ID":218,"Name":"Foundation Building Materials/ FBM","Address":"744 McDonald Ave","Borough":"BROOKLYN","HouseNum":744,"Street":"McDonald Ave","BoroCode":3,"BIN":3126559,"LAT":40.63627,"LONG":-73.97856}},
{"type":"Feature","geometry":{"type":"Point","coordinates":[-74.0221,40.63003]},"properties":{"OBJECTID":217,"ID":219,"Name":"NYC HARDWARE","Address":"7403 5th Ave","Borough":"BROOKLYN","HouseNum":7403,"Street":"5th Ave","BoroCode":3,"BIN":3148360,"LAT":40.63003,"LONG":-74.0221}},
{"type":"Feature","geometry":{"type":"Point","coordinates":[-73.95845,40.64652]},"properties":{"OBJECTID":218,"ID":220,"Name":"Handy Hardware","Address":"2123 Regent Pl","Borough":"BROOKLYN","HouseNum":2123,"Street":"Regent Pl","BoroCode":3,"BIN":3825289,"LAT":40.64652,"LONG":-73.95845}},
{"type":"Feature","geometry":{"type":"Point","coordinates":[-73.92915603,40.67968882]},"properties":{"OBJECTID":219,"ID":221,"Name":"BLG Hardware","Address":"439 Malcolm X Blvd","Borough":"BROOKLYN","HouseNum":439,"Street":"Malcolm X Blvd","BoroCode":3,"BIN":0,"LAT":40.67968882,"LONG":-73.92915603}},
{"type":"Feature","geometry":{"type":"Point","coordinates":[-73.9505,40.67272]},"properties":{"OBJECTID":220,"ID":222,"Name":"Key Made","Address":"760 Nostrand Ave.","Borough":"BROOKLYN","HouseNum":760,"Street":"Nostrand Ave.","BoroCode":3,"BIN":3031513,"LAT":40.67272,"LONG":-73.9505}},
{"type":"Feature","geometry":{"type":"Point","coordinates":[-73.89724383,40.63760188]},"properties":{"OBJECTID":221,"ID":223,"Name":"One Stop Hardware","Address":"9415 Avenue L","Borough":"BROOKLYN","HouseNum":9415,"Street":"Avenue L","BoroCode":3,"BIN":0,"LAT":40.63760188,"LONG":-73.89724383}},
{"type":"Feature","geometry":{"type":"Point","coordinates":[-73.98289,40.64075]},"properties":{"OBJECTID":222,"ID":224,"Name":"Boro Park Hardware & Building Material Supply Inc.","Address":"3616 14th Ave","Borough":"BROOKLYN","HouseNum":3616,"Street":"14th Ave","BoroCode":3,"BIN":3125058,"LAT":40.64075,"LONG":-73.98289}},
{"type":"Feature","geometry":{"type":"Point","coordinates":[-73.97989,40.61258]},"properties":{"OBJECTID":223,"ID":225,"Name":"Building Depot","Address":"2270 65th St","Borough":"BROOKLYN","HouseNum":2270,"Street":"65th St","BoroCode":3,"BIN":3173370,"LAT":40.61258,"LONG":-73.97989}},
{"type":"Feature","geometry":{"type":"Point","coordinates":[-73.95614,40.66331]},"properties":{"OBJECTID":224,"ID":226,"Name":"AWS - Advantage Wholesale Supply","Address":"172 Empire Blvd","Borough":"BROOKLYN","HouseNum":172,"Street":"Empire Blvd","BoroCode":3,"BIN":3034759,"LAT":40.66331,"LONG":-73.95614}},
{"type":"Feature","geometry":{"type":"Point","coordinates":[-73.9245206,40.63837587]},"properties":{"OBJECTID":225,"ID":227,"Name":"Corner Hardware","Address":"5337 Preston Ct","Borough":"BROOKLYN","HouseNum":5337,"Street":"Preston Ct","BoroCode":3,"BIN":0,"LAT":40.63837587,"LONG":-73.9245206}},
{"type":"Feature","geometry":{"type":"Point","coordinates":[-73.99094,40.67337]},"properties":{"OBJECTID":226,"ID":228,"Name":"NYC Kitchen and Bath","Address":"183 7th St","Borough":"BROOKLYN","HouseNum":183,"Street":"7th St","BoroCode":3,"BIN":3021551,"LAT":40.67337,"LONG":-73.99094}},
{"type":"Feature","geometry":{"type":"Point","coordinates":[-74.00611562,40.65739426]},"properties":{"OBJECTID":227,"ID":229,"Name":"RH Outlet Brooklyn","Address":"67 34th St","Borough":"BROOKLYN","HouseNum":67,"Street":"34th St","BoroCode":3,"BIN":0,"LAT":40.65739426,"LONG":-74.00611562}},
{"type":"Feature","geometry":{"type":"Point","coordinates":[-73.97054,40.60461]},"properties":{"OBJECTID":228,"ID":230,"Name":"Sols Hardware & Home Furnishings","Address":"513 Kings Hwy","Borough":"BROOKLYN","HouseNum":513,"Street":"Kings Hwy","BoroCode":3,"BIN":3177247,"LAT":40.60461,"LONG":-73.97054}},
{"type":"Feature","geometry":{"type":"Point","coordinates":[-73.96945,40.6426]},"properties":{"OBJECTID":229,"ID":231,"Name":"Prospect Building Supply","Address":"599 Coney Island Ave","Borough":"BROOKLYN","HouseNum":599,"Street":"Coney Island Ave","BoroCode":3,"BIN":3319776,"LAT":40.6426,"LONG":-73.96945}},
{"type":"Feature","geometry":{"type":"Point","coordinates":[-74.01111487,40.67147911]},"properties":{"OBJECTID":230,"ID":233,"Name":"IKEA","Address":"1 Beard St","Borough":"BROOKLYN","HouseNum":1,"Street":"Beard St","BoroCode":3,"BIN":0,"LAT":40.67147911,"LONG":-74.01111487}},
{"type":"Feature","geometry":{"type":"Point","coordinates":[-74.00086365,40.63588805]},"properties":{"OBJECTID":231,"ID":234,"Name":"Home Fixtures LLC","Address":"5323 Fort Hamilton Pkwy","Borough":"BROOKLYN","HouseNum":5323,"Street":"Fort Hamilton Pkwy","BoroCode":3,"BIN":0,"LAT":40.63588805,"LONG":-74.00086365}},
{"type":"Feature","geometry":{"type":"Point","coordinates":[-73.95414414,40.68367664]},"properties":{"OBJECTID":232,"ID":235,"Name":"STRIPPER STAINS AND SUPPLIES INC","Address":"1184 Bedford Ave","Borough":"BROOKLYN","HouseNum":1184,"Street":"Bedford Ave","BoroCode":3,"BIN":0,"LAT":40.68367664,"LONG":-73.95414414}},
{"type":"Feature","geometry":{"type":"Point","coordinates":[-73.97830875,40.67109708]},"properties":{"OBJECTID":233,"ID":236,"Name":"Tarzian West for Housewares","Address":"194 7th Ave","Borough":"BROOKLYN","HouseNum":194,"Street":"7th Ave","BoroCode":3,"BIN":0,"LAT":40.67109708,"LONG":-73.97830875}},
{"type":"Feature","geometry":{"type":"Point","coordinates":[-74.00996638,40.63136397]},"properties":{"OBJECTID":234,"ID":237,"Name":"S & K Wall & Floor Covering","Address":"901 65th St","Borough":"BROOKLYN","HouseNum":901,"Street":"65th St","BoroCode":3,"BIN":0,"LAT":40.63136397,"LONG":-74.00996638}},
{"type":"Feature","geometry":{"type":"Point","coordinates":[-73.92158,40.71045]},"properties":{"OBJECTID":235,"ID":238,"Name":"Los chino de correa y fan","Address":"270 Randolph St","Borough":"BROOKLYN","HouseNum":270,"Street":"Randolph St","BoroCode":3,"BIN":3325621,"LAT":40.71045,"LONG":-73.92158}},
{"type":"Feature","geometry":{"type":"Point","coordinates":[-74.01133042,40.62895845]},"properties":{"OBJECTID":236,"ID":239,"Name":"Tenda Discount Inc","Address":"6801 Fort Hamilton Pkwy","Borough":"BROOKLYN","HouseNum":6801,"Street":"Fort Hamilton Pkwy","BoroCode":3,"BIN":0,"LAT":40.62895845,"LONG":-74.01133042}},
{"type":"Feature","geometry":{"type":"Point","coordinates":[-73.92299,40.68766]},"properties":{"OBJECTID":237,"ID":240,"Name":"Gates Lumber","Address":"866 Madison St","Borough":"BROOKLYN","HouseNum":866,"Street":"Madison St","BoroCode":3,"BIN":3039682,"LAT":40.68766,"LONG":-73.92299}},
{"type":"Feature","geometry":{"type":"Point","coordinates":[-73.99223576,40.60130815]},"properties":{"OBJECTID":238,"ID":241,"Name":"A J Housewares","Address":"2251 86th St","Borough":"BROOKLYN","HouseNum":2251,"Street":"86th St","BoroCode":3,"BIN":0,"LAT":40.60130815,"LONG":-73.99223576}},
{"type":"Feature","geometry":{"type":"Point","coordinates":[-73.85803259,40.70846445]},"properties":{"OBJECTID":239,"ID":242,"Name":"The Home Depot","Address":"75-09 Woodhaven Blvd","Borough":"QUEENS","HouseNum":7509,"Street":"Woodhaven Blvd","BoroCode":4,"BIN":0,"LAT":40.70846445,"LONG":-73.85803259}},
{"type":"Feature","geometry":{"type":"Point","coordinates":[-73.89511,40.76316]},"properties":{"OBJECTID":240,"ID":243,"Name":"The Home Depot","Address":"73-01 25th Ave","Borough":"QUEENS","HouseNum":7301,"Street":"25th Ave","BoroCode":4,"BIN":4530769,"LAT":40.76316,"LONG":-73.89511}},
{"type":"Feature","geometry":{"type":"Point","coordinates":[-73.91226994,40.75228511]},"properties":{"OBJECTID":241,"ID":244,"Name":"The Home Depot","Address":"50-10 Northern Blvd","Borough":"QUEENS","HouseNum":5010,"Street":"Northern Blvd","BoroCode":4,"BIN":0,"LAT":40.75228511,"LONG":-73.91226994}},
{"type":"Feature","geometry":{"type":"Point","coordinates":[-73.83509943,40.75266595]},"properties":{"OBJECTID":242,"ID":245,"Name":"The Home Depot","Address":"131-35 Avery Ave","Borough":"QUEENS","HouseNum":13135,"Street":"Avery Ave","BoroCode":4,"BIN":0,"LAT":40.75266595,"LONG":-73.83509943}},
{"type":"Feature","geometry":{"type":"Point","coordinates":[-73.82665905,40.67607916]},"properties":{"OBJECTID":243,"ID":246,"Name":"The Home Depot","Address":"11220 Rockaway Blvd","Borough":"QUEENS","HouseNum":11220,"Street":"Rockaway Blvd","BoroCode":4,"BIN":0,"LAT":40.67607916,"LONG":-73.82665905}},
{"type":"Feature","geometry":{"type":"Point","coordinates":[-73.75751935,40.67700081]},"properties":{"OBJECTID":244,"ID":247,"Name":"The Home Depot","Address":"13220 Merrick Blvd","Borough":"QUEENS","HouseNum":13220,"Street":"Merrick Blvd","BoroCode":4,"BIN":0,"LAT":40.67700081,"LONG":-73.75751935}},
{"type":"Feature","geometry":{"type":"Point","coordinates":[-73.90943,40.72702]},"properties":{"OBJECTID":245,"ID":248,"Name":"The Home Depot","Address":"59-15 Maurice Ave","Borough":"QUEENS","HouseNum":5915,"Street":"Maurice Ave","BoroCode":4,"BIN":4619469,"LAT":40.72702,"LONG":-73.90943}},
{"type":"Feature","geometry":{"type":"Point","coordinates":[-73.84395,40.76731]},"properties":{"OBJECTID":246,"ID":249,"Name":"The Home Depot","Address":"124-04 31st Ave","Borough":"QUEENS","HouseNum":12404,"Street":"31st Ave","BoroCode":4,"BIN":4438019,"LAT":40.76731,"LONG":-73.84395}},
{"type":"Feature","geometry":{"type":"Point","coordinates":[-73.90343,40.708]},"properties":{"OBJECTID":247,"ID":250,"Name":"Platz Hardware True Value","Address":"65-25 Forest Ave","Borough":"QUEENS","HouseNum":6525,"Street":"Forest Ave","BoroCode":4,"BIN":4083710,"LAT":40.708,"LONG":-73.90343}},
{"type":"Feature","geometry":{"type":"Point","coordinates":[-73.84471201,40.69534623]},"properties":{"OBJECTID":248,"ID":251,"Name":"Ecua Hardware Inc","Address":"10215 Jamaica Ave","Borough":"QUEENS","HouseNum":10215,"Street":"Jamaica Ave","BoroCode":4,"BIN":0,"LAT":40.69534623,"LONG":-73.84471201}},
{"type":"Feature","geometry":{"type":"Point","coordinates":[-73.79273693,40.70515929]},"properties":{"OBJECTID":249,"ID":252,"Name":"The Home Depot","Address":"92-30 168th St","Borough":"QUEENS","HouseNum":9230,"Street":"168th St","BoroCode":4,"BIN":0,"LAT":40.70515929,"LONG":-73.79273693}},
{"type":"Feature","geometry":{"type":"Point","coordinates":[-73.81008775,40.71985288]},"properties":{"OBJECTID":250,"ID":253,"Name":"Big Apple Hardware & Houseware Inc.","Address":"15317 Union Tpke","Borough":"QUEENS","HouseNum":15317,"Street":"Union Tpke","BoroCode":4,"BIN":0,"LAT":40.71985288,"LONG":-73.81008775}},
{"type":"Feature","geometry":{"type":"Point","coordinates":[-73.82110028,40.7023093]},"properties":{"OBJECTID":251,"ID":254,"Name":"Jamaica Hardware & Paints inc.","Address":"13101 Jamaica Ave","Borough":"QUEENS","HouseNum":13101,"Street":"Jamaica Ave","BoroCode":4,"BIN":0,"LAT":40.7023093,"LONG":-73.82110028}},
{"type":"Feature","geometry":{"type":"Point","coordinates":[-73.87852949,40.75019536]},"properties":{"OBJECTID":252,"ID":255,"Name":"NHS HARDWARE - JACKSON HEIGHTS","Address":"8806 37th Ave","Borough":"QUEENS","HouseNum":8806,"Street":"37th Ave","BoroCode":4,"BIN":0,"LAT":40.75019536,"LONG":-73.87852949}},
{"type":"Feature","geometry":{"type":"Point","coordinates":[-73.8362405,40.71756916]},"properties":{"OBJECTID":253,"ID":256,"Name":"Forest Hills Hardware Store","Address":"11232 Queens Blvd","Borough":"QUEENS","HouseNum":11232,"Street":"Queens Blvd","BoroCode":4,"BIN":0,"LAT":40.71756916,"LONG":-73.8362405}},
{"type":"Feature","geometry":{"type":"Point","coordinates":[-73.8044,40.73267]},"properties":{"OBJECTID":254,"ID":257,"Name":"The Builder's Zone","Address":"69-09 164th St","Borough":"QUEENS","HouseNum":6909,"Street":"164th St","BoroCode":4,"BIN":4149771,"LAT":40.73267,"LONG":-73.8044}},
{"type":"Feature","geometry":{"type":"Point","coordinates":[-73.8364972,40.6819683]},"properties":{"OBJECTID":255,"ID":258,"Name":"Shop-Rite Hardware True Value","Address":"104-12 Liberty Ave","Borough":"QUEENS","HouseNum":10412,"Street":"Liberty Ave","BoroCode":4,"BIN":0,"LAT":40.6819683,"LONG":-73.8364972}},
{"type":"Feature","geometry":{"type":"Point","coordinates":[-73.83241653,40.71573793]},"properties":{"OBJECTID":256,"ID":259,"Name":"Queens Paint & Home Center Inc.","Address":"11643 Queens Blvd","Borough":"QUEENS","HouseNum":11643,"Street":"Queens Blvd","BoroCode":4,"BIN":0,"LAT":40.71573793,"LONG":-73.83241653}},
{"type":"Feature","geometry":{"type":"Point","coordinates":[-73.79437,40.68643]},"properties":{"OBJECTID":257,"ID":260,"Name":"HSH HARDWARE STORE","Address":"113-14 Sutphin Blvd","Borough":"QUEENS","HouseNum":11314,"Street":"Sutphin Blvd","BoroCode":4,"BIN":4259003,"LAT":40.68643,"LONG":-73.79437}},
{"type":"Feature","geometry":{"type":"Point","coordinates":[-73.7963437,40.73901759]},"properties":{"OBJECTID":258,"ID":261,"Name":"Jere's Hardware","Address":"17305 Horace Harding Expy","Borough":"QUEENS","HouseNum":17305,"Street":"Horace Harding Expy","BoroCode":4,"BIN":0,"LAT":40.73901759,"LONG":-73.7963437}},
{"type":"Feature","geometry":{"type":"Point","coordinates":[-73.90164342,40.72230028]},"properties":{"OBJECTID":259,"ID":262,"Name":"Maspeth Hardware","Address":"6320 Flushing Ave","Borough":"QUEENS","HouseNum":6320,"Street":"Flushing Ave","BoroCode":4,"BIN":0,"LAT":40.72230028,"LONG":-73.90164342}},
{"type":"Feature","geometry":{"type":"Point","coordinates":[-73.81423,40.76393]},"properties":{"OBJECTID":260,"ID":263,"Name":"Beplat Hardware True Value","Address":"150-01 Roosevelt Ave","Borough":"QUEENS","HouseNum":15001,"Street":"Roosevelt Ave","BoroCode":4,"BIN":4114047,"LAT":40.76393,"LONG":-73.81423}},
{"type":"Feature","geometry":{"type":"Point","coordinates":[-73.87048,40.74217]},"properties":{"OBJECTID":261,"ID":264,"Name":"YY Hardware & Supplies, Inc.","Address":"93-24 Corona Ave.","Borough":"QUEENS","HouseNum":9324,"Street":"Corona Ave.","BoroCode":4,"BIN":4046046,"LAT":40.74217,"LONG":-73.87048}},
{"type":"Feature","geometry":{"type":"Point","coordinates":[-73.8629973,40.69186389]},"properties":{"OBJECTID":262,"ID":265,"Name":"Hardware City","Address":"7906 Jamaica Ave","Borough":"QUEENS","HouseNum":7906,"Street":"Jamaica Ave","BoroCode":4,"BIN":0,"LAT":40.69186389,"LONG":-73.8629973}},
{"type":"Feature","geometry":{"type":"Point","coordinates":[-73.86866181,40.74708611]},"properties":{"OBJECTID":263,"ID":266,"Name":"Junction Hardware and Houseware Inc.","Address":"4114 Junction Blvd","Borough":"QUEENS","HouseNum":4114,"Street":"Junction Blvd","BoroCode":4,"BIN":0,"LAT":40.74708611,"LONG":-73.86866181}},
{"type":"Feature","geometry":{"type":"Point","coordinates":[-73.76765,40.75589]},"properties":{"OBJECTID":264,"ID":267,"Name":"Bell Home & Hardware","Address":"47-28 Bell Blvd","Borough":"QUEENS","HouseNum":4728,"Street":"Bell Blvd","BoroCode":4,"BIN":4157334,"LAT":40.75589,"LONG":-73.76765}},
{"type":"Feature","geometry":{"type":"Point","coordinates":[-73.8808413,40.73809208]},"properties":{"OBJECTID":265,"ID":268,"Name":"Lakewood Hardware Inc.","Address":"82-31 51st Ave","Borough":"QUEENS","HouseNum":8231,"Street":"51st Ave","BoroCode":4,"BIN":0,"LAT":40.73809208,"LONG":-73.8808413}},
{"type":"Feature","geometry":{"type":"Point","coordinates":[-73.77714922,40.67841446]},"properties":{"OBJECTID":266,"ID":269,"Name":"Best Home Center","Address":"16594 Baisley Blvd","Borough":"QUEENS","HouseNum":16594,"Street":"Baisley Blvd","BoroCode":4,"BIN":0,"LAT":40.67841446,"LONG":-73.77714922}},
{"type":"Feature","geometry":{"type":"Point","coordinates":[-73.82868277,40.7581901]},"properties":{"OBJECTID":267,"ID":270,"Name":"Flushing Home Center","Address":"4121 Kissena Blvd","Borough":"QUEENS","HouseNum":4121,"Street":"Kissena Blvd","BoroCode":4,"BIN":0,"LAT":40.7581901,"LONG":-73.82868277}},
{"type":"Feature","geometry":{"type":"Point","coordinates":[-73.92625567,40.76258114]},"properties":{"OBJECTID":268,"ID":271,"Name":"Broadway Hardware & Paint Center","Address":"2917 Broadway","Borough":"QUEENS","HouseNum":2917,"Street":"Broadway","BoroCode":4,"BIN":0,"LAT":40.76258114,"LONG":-73.92625567}},
{"type":"Feature","geometry":{"type":"Point","coordinates":[-73.82072147,40.68780715]},"properties":{"OBJECTID":269,"ID":272,"Name":"Persaud Hardware & Housewares","Address":"12315 Liberty Ave","Borough":"QUEENS","HouseNum":12315,"Street":"Liberty Ave","BoroCode":4,"BIN":0,"LAT":40.68780715,"LONG":-73.82072147}},
{"type":"Feature","geometry":{"type":"Point","coordinates":[-73.83853569,40.65257026]},"properties":{"OBJECTID":270,"ID":273,"Name":"Cross Bay Hardware Co","Address":"16254 Cross Bay Blvd","Borough":"QUEENS","HouseNum":16254,"Street":"Cross Bay Blvd","BoroCode":4,"BIN":0,"LAT":40.65257026,"LONG":-73.83853569}},
{"type":"Feature","geometry":{"type":"Point","coordinates":[-73.80812,40.70649]},"properties":{"OBJECTID":271,"ID":274,"Name":"Angelo True Value Paint & Hardware","Address":"148-27 Hillside Ave.","Borough":"QUEENS","HouseNum":14827,"Street":"Hillside Ave.","BoroCode":4,"BIN":4207419,"LAT":40.70649,"LONG":-73.80812}},
{"type":"Feature","geometry":{"type":"Point","coordinates":[-73.88447445,40.74392301]},"properties":{"OBJECTID":272,"ID":275,"Name":"ElmHurst Hardware & Household Inc","Address":"80-19 Broadway","Borough":"QUEENS","HouseNum":8019,"Street":"Broadway","BoroCode":4,"BIN":0,"LAT":40.74392301,"LONG":-73.88447445}},
{"type":"Feature","geometry":{"type":"Point","coordinates":[-73.82955047,40.6851096]},"properties":{"OBJECTID":273,"ID":276,"Name":"Empire Hardware & Supply Inc.","Address":"11218 Liberty Ave","Borough":"QUEENS","HouseNum":11218,"Street":"Liberty Ave","BoroCode":4,"BIN":0,"LAT":40.6851096,"LONG":-73.82955047}},
{"type":"Feature","geometry":{"type":"Point","coordinates":[-73.85680674,40.73240317]},"properties":{"OBJECTID":274,"ID":277,"Name":"Dagim Hardware & Housewares","Address":"9900 63rd Rd","Borough":"QUEENS","HouseNum":9900,"Street":"63rd Rd","BoroCode":4,"BIN":0,"LAT":40.73240317,"LONG":-73.85680674}},
{"type":"Feature","geometry":{"type":"Point","coordinates":[-73.91369113,40.76506171]},"properties":{"OBJECTID":275,"ID":278,"Name":"Straus Paint & Hardware","Address":"2809 Steinway St","Borough":"QUEENS","HouseNum":2809,"Street":"Steinway St","BoroCode":4,"BIN":0,"LAT":40.76506171,"LONG":-73.91369113}},
{"type":"Feature","geometry":{"type":"Point","coordinates":[-73.73956983,40.71406273]},"properties":{"OBJECTID":276,"ID":279,"Name":"Hempstead Building Supply & Hardware","Address":"217-68 Hempstead Ave","Borough":"QUEENS","HouseNum":21768,"Street":"Hempstead Ave","BoroCode":4,"BIN":0,"LAT":40.71406273,"LONG":-73.73956983}},
{"type":"Feature","geometry":{"type":"Point","coordinates":[-73.84937,40.73172]},"properties":{"OBJECTID":277,"ID":280,"Name":"108th Street Hardware and Discount Inc.","Address":"64-38 108th St","Borough":"QUEENS","HouseNum":6438,"Street":"108th St","BoroCode":4,"BIN":4051447,"LAT":40.73172,"LONG":-73.84937}},
{"type":"Feature","geometry":{"type":"Point","coordinates":[-73.83604,40.69791]},"properties":{"OBJECTID":278,"ID":281,"Name":"Brite - Hardware, Locksmith, Bldg Supply","Address":"112-15 Jamaica Ave","Borough":"QUEENS","HouseNum":11215,"Street":"Jamaica Ave","BoroCode":4,"BIN":4192677,"LAT":40.69791,"LONG":-73.83604}},
{"type":"Feature","geometry":{"type":"Point","coordinates":[-73.78328,40.70822]},"properties":{"OBJECTID":279,"ID":282,"Name":"Jamaica Building Supply Inc","Address":"178-01 Jamaica Ave","Borough":"QUEENS","HouseNum":17801,"Street":"Jamaica Ave","BoroCode":4,"BIN":4211502,"LAT":40.70822,"LONG":-73.78328}},
{"type":"Feature","geometry":{"type":"Point","coordinates":[-73.92375496,40.74335032]},"properties":{"OBJECTID":280,"ID":283,"Name":"Sunnyside Hardware & Locksmith","Address":"40-16 Queens Blvd","Borough":"QUEENS","HouseNum":4016,"Street":"Queens Blvd","BoroCode":4,"BIN":0,"LAT":40.74335032,"LONG":-73.92375496}},
{"type":"Feature","geometry":{"type":"Point","coordinates":[-73.92117,40.74101]},"properties":{"OBJECTID":281,"ID":284,"Name":"Better Line Hardware","Address":"43-24 Greenpoint Ave","Borough":"QUEENS","HouseNum":4324,"Street":"Greenpoint Ave","BoroCode":4,"BIN":4002116,"LAT":40.74101,"LONG":-73.92117}},
{"type":"Feature","geometry":{"type":"Point","coordinates":[-73.74805134,40.71562546]},"properties":{"OBJECTID":282,"ID":285,"Name":"Greenfield Brothers","Address":"21139 Jamaica Ave","Borough":"QUEENS","HouseNum":21139,"Street":"Jamaica Ave","BoroCode":4,"BIN":0,"LAT":40.71562546,"LONG":-73.74805134}},
{"type":"Feature","geometry":{"type":"Point","coordinates":[-73.83553,40.69817]},"properties":{"OBJECTID":283,"ID":286,"Name":"A to Z Hardware","Address":"113-07 Jamaica Ave","Borough":"QUEENS","HouseNum":11307,"Street":"Jamaica Ave","BoroCode":4,"BIN":4192698,"LAT":40.69817,"LONG":-73.83553}},
{"type":"Feature","geometry":{"type":"Point","coordinates":[-73.81435,40.78945]},"properties":{"OBJECTID":284,"ID":287,"Name":"Whitestone Hardware Corp.","Address":"12-48 150th St","Borough":"QUEENS","HouseNum":1248,"Street":"150th St","BoroCode":4,"BIN":4102475,"LAT":40.78945,"LONG":-73.81435}},
{"type":"Feature","geometry":{"type":"Point","coordinates":[-73.80606628,40.75399902]},"properties":{"OBJECTID":285,"ID":288,"Name":"Flushing Hardware","Address":"4590 161st St","Borough":"QUEENS","HouseNum":4590,"Street":"161st St","BoroCode":4,"BIN":0,"LAT":40.75399902,"LONG":-73.80606628}},
{"type":"Feature","geometry":{"type":"Point","coordinates":[-73.91894241,40.74267363]},"properties":{"OBJECTID":286,"ID":289,"Name":"Signature Paints & Home Center","Address":"45-24 46th St","Borough":"QUEENS","HouseNum":4524,"Street":"46th St","BoroCode":4,"BIN":0,"LAT":40.74267363,"LONG":-73.91894241}},
{"type":"Feature","geometry":{"type":"Point","coordinates":[-73.75655532,40.74825777]},"properties":{"OBJECTID":287,"ID":290,"Name":"Springfield Hardware","Address":"6134 Springfield Blvd","Borough":"QUEENS","HouseNum":6134,"Street":"Springfield Blvd","BoroCode":4,"BIN":0,"LAT":40.74825777,"LONG":-73.75655532}},
{"type":"Feature","geometry":{"type":"Point","coordinates":[-73.74770509,40.72122695]},"properties":{"OBJECTID":288,"ID":291,"Name":"Mogual Hardware","Address":"21244 91st Ave","Borough":"QUEENS","HouseNum":21244,"Street":"91st Ave","BoroCode":4,"BIN":0,"LAT":40.72122695,"LONG":-73.74770509}},
{"type":"Feature","geometry":{"type":"Point","coordinates":[-73.74026,40.63605]},"properties":{"OBJECTID":289,"ID":292,"Name":"Lowe's Home Improvement","Address":"253-01 Rockaway Blvd","Borough":"QUEENS","HouseNum":25301,"Street":"Rockaway Blvd","BoroCode":4,"BIN":4836811,"LAT":40.63605,"LONG":-73.74026}},
{"type":"Feature","geometry":{"type":"Point","coordinates":[-73.87748945,40.72600705]},"properties":{"OBJECTID":290,"ID":293,"Name":"Harrys Paint & Hardware True Value","Address":"8203 Eliot Ave","Borough":"QUEENS","HouseNum":8203,"Street":"Eliot Ave","BoroCode":4,"BIN":0,"LAT":40.72600705,"LONG":-73.87748945}},
{"type":"Feature","geometry":{"type":"Point","coordinates":[-73.92707309,40.77240785]},"properties":{"OBJECTID":291,"ID":294,"Name":"R & R General Supply","Address":"1807 Astoria Blvd","Borough":"QUEENS","HouseNum":1807,"Street":"Astoria Blvd","BoroCode":4,"BIN":0,"LAT":40.77240785,"LONG":-73.92707309}},
{"type":"Feature","geometry":{"type":"Point","coordinates":[-73.76136586,40.72088293]},"properties":{"OBJECTID":292,"ID":295,"Name":"Hardware & Paint","Address":"204-3 Hillside Ave.","Borough":"QUEENS","HouseNum":2043,"Street":"Hillside Ave.","BoroCode":4,"BIN":0,"LAT":40.72088293,"LONG":-73.76136586}},
{"type":"Feature","geometry":{"type":"Point","coordinates":[-73.7876,40.7268]},"properties":{"OBJECTID":293,"ID":296,"Name":"RGF Home Decor","Address":"180-02 Union Tpke","Borough":"QUEENS","HouseNum":18002,"Street":"Union Tpke","BoroCode":4,"BIN":4155492,"LAT":40.7268,"LONG":-73.7876}},
{"type":"Feature","geometry":{"type":"Point","coordinates":[-73.86287,40.68249]},"properties":{"OBJECTID":294,"ID":297,"Name":"MAFHOMEIMPROVEMENT1","Address":"75-24 95th Ave","Borough":"QUEENS","HouseNum":7524,"Street":"95th Ave","BoroCode":4,"BIN":4186843,"LAT":40.68249,"LONG":-73.86287}},
{"type":"Feature","geometry":{"type":"Point","coordinates":[-73.91405,40.77554]},"properties":{"OBJECTID":295,"ID":298,"Name":"Bartunek Hardware Inc","Address":"28-07 23rd Ave","Borough":"QUEENS","HouseNum":2807,"Street":"23rd Ave","BoroCode":4,"BIN":4017631,"LAT":40.77554,"LONG":-73.91405}},
{"type":"Feature","geometry":{"type":"Point","coordinates":[-73.82513687,40.73223034]},"properties":{"OBJECTID":296,"ID":299,"Name":"Towne Paint & Hardware","Address":"6842 Main St","Borough":"QUEENS","HouseNum":6842,"Street":"Main St","BoroCode":4,"BIN":0,"LAT":40.73223034,"LONG":-73.82513687}},
{"type":"Feature","geometry":{"type":"Point","coordinates":[-73.86947,40.72401]},"properties":{"OBJECTID":297,"ID":300,"Name":"Homelegant Floor & Cabinet Inc","Address":"63-08 Woodhaven Blvd","Borough":"QUEENS","HouseNum":6308,"Street":"Woodhaven Blvd","BoroCode":4,"BIN":4069585,"LAT":40.72401,"LONG":-73.86947}},
{"type":"Feature","geometry":{"type":"Point","coordinates":[-73.88934544,40.72961592]},"properties":{"OBJECTID":298,"ID":301,"Name":"All For Kitchen & Bath in Grand Design","Address":"73-20 Grand Ave","Borough":"QUEENS","HouseNum":7320,"Street":"Grand Ave","BoroCode":4,"BIN":0,"LAT":40.72961592,"LONG":-73.88934544}},
{"type":"Feature","geometry":{"type":"Point","coordinates":[-73.86957838,40.72573019]},"properties":{"OBJECTID":299,"ID":303,"Name":"Locksmith Hardware","Address":"6247 Woodhaven Blvd","Borough":"QUEENS","HouseNum":6247,"Street":"Woodhaven Blvd","BoroCode":4,"BIN":0,"LAT":40.72573019,"LONG":-73.86957838}},
{"type":"Feature","geometry":{"type":"Point","coordinates":[-73.70235548,40.70980711]},"properties":{"OBJECTID":300,"ID":304,"Name":"The Home Depot","Address":"600 Hempstead Turnpike","Borough":"QUEENS","HouseNum":600,"Street":"Hempstead Turnpike","BoroCode":4,"BIN":0,"LAT":40.70980711,"LONG":-73.70235548}},
{"type":"Feature","geometry":{"type":"Point","coordinates":[-73.8510392,40.69393445]},"properties":{"OBJECTID":301,"ID":305,"Name":"M.M. Housewares Hardware","Address":"9404 Jamaica Ave","Borough":"QUEENS","HouseNum":9404,"Street":"Jamaica Ave","BoroCode":4,"BIN":0,"LAT":40.69393445,"LONG":-73.8510392}},
{"type":"Feature","geometry":{"type":"Point","coordinates":[-73.83790549,40.5806271]},"properties":{"OBJECTID":302,"ID":306,"Name":"Mazzone Ace Hardware","Address":"245-251 Beach 116th St","Borough":"QUEENS","HouseNum":245251,"Street":"Beach 116th St","BoroCode":4,"BIN":0,"LAT":40.5806271,"LONG":-73.83790549}},
{"type":"Feature","geometry":{"type":"Point","coordinates":[-73.78079707,40.72947584]},"properties":{"OBJECTID":303,"ID":307,"Name":"Safehouse Locksmith & Hardware","Address":"188-11 Union Tpke","Borough":"QUEENS","HouseNum":18811,"Street":"Union Tpke","BoroCode":4,"BIN":0,"LAT":40.72947584,"LONG":-73.78079707}},
{"type":"Feature","geometry":{"type":"Point","coordinates":[-73.83639281,40.76748546]},"properties":{"OBJECTID":304,"ID":308,"Name":"Elect Kitchen & Bath","Address":"133-05 32nd Ave","Borough":"QUEENS","HouseNum":13305,"Street":"32nd Ave","BoroCode":4,"BIN":0,"LAT":40.76748546,"LONG":-73.83639281}},
{"type":"Feature","geometry":{"type":"Point","coordinates":[-73.86407586,40.73362684]},"properties":{"OBJECTID":305,"ID":309,"Name":"At Home","Address":"6135 Junction Blvd","Borough":"QUEENS","HouseNum":6135,"Street":"Junction Blvd","BoroCode":4,"BIN":0,"LAT":40.73362684,"LONG":-73.86407586}},
{"type":"Feature","geometry":{"type":"Point","coordinates":[-73.69188584,40.75340097]},"properties":{"OBJECTID":306,"ID":310,"Name":"Costello's Ace Hardware of New Hyde Park","Address":"1518 Union Tpke","Borough":"QUEENS","HouseNum":1518,"Street":"Union Tpke","BoroCode":4,"BIN":0,"LAT":40.75340097,"LONG":-73.69188584}},
{"type":"Feature","geometry":{"type":"Point","coordinates":[-73.81366911,40.71260175]},"properties":{"OBJECTID":307,"ID":311,"Name":"DurbinPaz","Address":"14312 84th Rd","Borough":"QUEENS","HouseNum":14312,"Street":"84th Rd","BoroCode":4,"BIN":0,"LAT":40.71260175,"LONG":-73.81366911}},
{"type":"Feature","geometry":{"type":"Point","coordinates":[-73.7753747,40.70944784]},"properties":{"OBJECTID":308,"ID":312,"Name":"Jamaica Salvage & Liquidators","Address":"18419 Jamaica Ave","Borough":"QUEENS","HouseNum":18419,"Street":"Jamaica Ave","BoroCode":4,"BIN":0,"LAT":40.70944784,"LONG":-73.7753747}},
{"type":"Feature","geometry":{"type":"Point","coordinates":[-73.92722,40.74564]},"properties":{"OBJECTID":309,"ID":313,"Name":"Queens Plumbing Supply","Address":"43-01 37th St","Borough":"QUEENS","HouseNum":4301,"Street":"37th St","BoroCode":4,"BIN":4003143,"LAT":40.74564,"LONG":-73.92722}},
{"type":"Feature","geometry":{"type":"Point","coordinates":[-73.89431344,40.73786276]},"properties":{"OBJECTID":310,"ID":314,"Name":"Advance Building Products","Address":"4816 70th St","Borough":"QUEENS","HouseNum":4816,"Street":"70th St","BoroCode":4,"BIN":0,"LAT":40.73786276,"LONG":-73.89431344}},
{"type":"Feature","geometry":{"type":"Point","coordinates":[-73.77805248,40.70377029]},"properties":{"OBJECTID":311,"ID":315,"Name":"Gallery Home Store","Address":"105-35 180th St","Borough":"QUEENS","HouseNum":10535,"Street":"180th St","BoroCode":4,"BIN":0,"LAT":40.70377029,"LONG":-73.77805248}},
{"type":"Feature","geometry":{"type":"Point","coordinates":[-73.76641986,40.7578407]},"properties":{"OBJECTID":312,"ID":316,"Name":"AL Painting & Remodeling","Address":"4623 215th St","Borough":"QUEENS","HouseNum":4623,"Street":"215th St","BoroCode":4,"BIN":0,"LAT":40.7578407,"LONG":-73.76641986}},
{"type":"Feature","geometry":{"type":"Point","coordinates":[-73.79667,40.73961]},"properties":{"OBJECTID":313,"ID":317,"Name":"New Zone Inc ?????","Address":"59-25 Fresh Meadow Ln","Borough":"QUEENS","HouseNum":5925,"Street":"Fresh Meadow Ln","BoroCode":4,"BIN":4148768,"LAT":40.73961,"LONG":-73.79667}},
{"type":"Feature","geometry":{"type":"Point","coordinates":[-73.85509798,40.72709708]},"properties":{"OBJECTID":314,"ID":318,"Name":"Houseware World","Address":"9896 Queens Blvd","Borough":"QUEENS","HouseNum":9896,"Street":"Queens Blvd","BoroCode":4,"BIN":0,"LAT":40.72709708,"LONG":-73.85509798}},
{"type":"Feature","geometry":{"type":"Point","coordinates":[-73.88328,40.75603]},"properties":{"OBJECTID":315,"ID":319,"Name":"Marino's Hardware","Address":"84-05 Northern Blvd","Borough":"QUEENS","HouseNum":8405,"Street":"Northern Blvd","BoroCode":4,"BIN":4034626,"LAT":40.75603,"LONG":-73.88328}},
{"type":"Feature","geometry":{"type":"Point","coordinates":[-74.084,40.61284]},"properties":{"OBJECTID":316,"ID":320,"Name":"The Home Depot","Address":"545 Targee St","Borough":"STATEN ISLAND","HouseNum":545,"Street":"Targee St","BoroCode":5,"BIN":5112730,"LAT":40.61284,"LONG":-74.084}},
{"type":"Feature","geometry":{"type":"Point","coordinates":[-74.17262276,40.62925075]},"properties":{"OBJECTID":317,"ID":321,"Name":"The Home Depot","Address":"2501 Forest Ave","Borough":"STATEN ISLAND","HouseNum":2501,"Street":"Forest Ave","BoroCode":5,"BIN":0,"LAT":40.62925075,"LONG":-74.17262276}},
{"type":"Feature","geometry":{"type":"Point","coordinates":[-74.16243,40.62775]},"properties":{"OBJECTID":318,"ID":322,"Name":"Lowe's Home Improvement","Address":"2171 Forest Ave","Borough":"STATEN ISLAND","HouseNum":2171,"Street":"Forest Ave","BoroCode":5,"BIN":5141899,"LAT":40.62775,"LONG":-74.16243}},
{"type":"Feature","geometry":{"type":"Point","coordinates":[-74.22389,40.54737]},"properties":{"OBJECTID":319,"ID":323,"Name":"Lowe's Home Improvement","Address":"2790 Arthur Kill Rd","Borough":"STATEN ISLAND","HouseNum":2790,"Street":"Arthur Kill Rd","BoroCode":5,"BIN":5158451,"LAT":40.54737,"LONG":-74.22389}},
{"type":"Feature","geometry":{"type":"Point","coordinates":[-74.12441,40.61337]},"properties":{"OBJECTID":320,"ID":324,"Name":"Reimans True Value Hardware","Address":"1825 Victory Blvd","Borough":"STATEN ISLAND","HouseNum":1825,"Street":"Victory Blvd","BoroCode":5,"BIN":5010500,"LAT":40.61337,"LONG":-74.12441}},
{"type":"Feature","geometry":{"type":"Point","coordinates":[-74.12,40.61356]},"properties":{"OBJECTID":321,"ID":325,"Name":"Costello's Ace Hardware of Staten Island","Address":"1677 Victory Blvd","Borough":"STATEN ISLAND","HouseNum":1677,"Street":"Victory Blvd","BoroCode":5,"BIN":5009514,"LAT":40.61356,"LONG":-74.12}},
{"type":"Feature","geometry":{"type":"Point","coordinates":[-74.07883,40.63804]},"properties":{"OBJECTID":322,"ID":326,"Name":"Dembner's Hardware & Paints","Address":"68 Victory Blvd","Borough":"STATEN ISLAND","HouseNum":68,"Street":"Victory Blvd","BoroCode":5,"BIN":5014537,"LAT":40.63804,"LONG":-74.07883}},
{"type":"Feature","geometry":{"type":"Point","coordinates":[-74.13291306,40.563958]},"properties":{"OBJECTID":323,"ID":327,"Name":"Capital Paint & True Value Hardware","Address":"3155 Amboy Rd","Borough":"STATEN ISLAND","HouseNum":3155,"Street":"Amboy Rd","BoroCode":5,"BIN":0,"LAT":40.563958,"LONG":-74.13291306}},
{"type":"Feature","geometry":{"type":"Point","coordinates":[-74.14664,40.54107]},"properties":{"OBJECTID":324,"ID":328,"Name":"South Side Hardware Co","Address":"4034 Hylan Blvd","Borough":"STATEN ISLAND","HouseNum":4034,"Street":"Hylan Blvd","BoroCode":5,"BIN":5068137,"LAT":40.54107,"LONG":-74.14664}},
{"type":"Feature","geometry":{"type":"Point","coordinates":[-74.15138,40.54764]},"properties":{"OBJECTID":325,"ID":329,"Name":"Bernabe Home Improvement Inc.","Address":"117 Lindenwood Rd","Borough":"STATEN ISLAND","HouseNum":117,"Street":"Lindenwood Rd","BoroCode":5,"BIN":5066272,"LAT":40.54764,"LONG":-74.15138}},
{"type":"Feature","geometry":{"type":"Point","coordinates":[-74.07323,40.61834]},"properties":{"OBJECTID":326,"ID":330,"Name":"Garber Building Supplies Co","Address":"98 Greenfield Ave","Borough":"STATEN ISLAND","HouseNum":98,"Street":"Greenfield Ave","BoroCode":5,"BIN":5042478,"LAT":40.61834,"LONG":-74.07323}},
{"type":"Feature","geometry":{"type":"Point","coordinates":[-74.22868,40.52868]},"properties":{"OBJECTID":327,"ID":331,"Name":"The Home Depot","Address":"2750 Veterans Rd W","Borough":"STATEN ISLAND","HouseNum":2750,"Street":"Veterans Rd W","BoroCode":5,"BIN":5149741,"LAT":40.52868,"LONG":-74.22868}},
{"type":"Feature","geometry":{"type":"Point","coordinates":[-74.10471,40.57595]},"properties":{"OBJECTID":328,"ID":332,"Name":"Hylan Supply","Address":"2249 Hylan Blvd","Borough":"STATEN ISLAND","HouseNum":2249,"Street":"Hylan Blvd","BoroCode":5,"BIN":5052171,"LAT":40.57595,"LONG":-74.10471}},
{"type":"Feature","geometry":{"type":"Point","coordinates":[-74.16588,40.62786]},"properties":{"OBJECTID":329,"ID":333,"Name":"Harbor Freight Tools","Address":"2295 Forest Ave","Borough":"STATEN ISLAND","HouseNum":2295,"Street":"Forest Ave","BoroCode":5,"BIN":5028373,"LAT":40.62786,"LONG":-74.16588}},
{"type":"Feature","geometry":{"type":"Point","coordinates":[-74.18896,40.54148]},"properties":{"OBJECTID":330,"ID":334,"Name":"APC Home Improvements Inc.","Address":"404 Rathbun Ave","Borough":"STATEN ISLAND","HouseNum":404,"Street":"Rathbun Ave","BoroCode":5,"BIN":5081029,"LAT":40.54148,"LONG":-74.18896}},
{"type":"Feature","geometry":{"type":"Point","coordinates":[-74.12882945,40.63732963]},"properties":{"OBJECTID":331,"ID":335,"Name":"Tri Star Home Center","Address":"1912 Richmond Terrace","Borough":"STATEN ISLAND","HouseNum":1912,"Street":"Richmond Terrace","BoroCode":5,"BIN":0,"LAT":40.63732963,"LONG":-74.12882945}},
{"type":"Feature","geometry":{"type":"Point","coordinates":[-74.17624,40.60209]},"properties":{"OBJECTID":332,"ID":336,"Name":"Metacrylics NY","Address":"3521 Victory Blvd","Borough":"STATEN ISLAND","HouseNum":3521,"Street":"Victory Blvd","BoroCode":5,"BIN":5036689,"LAT":40.60209,"LONG":-74.17624}},
{"type":"Feature","geometry":{"type":"Point","coordinates":[-74.08596,40.61078]},"properties":{"OBJECTID":333,"ID":337,"Name":"Innovation Kitchen & Bath","Address":"651 Targee St","Borough":"STATEN ISLAND","HouseNum":651,"Street":"Targee St","BoroCode":5,"BIN":5043484,"LAT":40.61078,"LONG":-74.08596}},
{"type":"Feature","geometry":{"type":"Point","coordinates":[-74.08772,40.59248]},"properties":{"OBJECTID":334,"ID":338,"Name":"Statwood Home Improvements","Address":"1475 Hylan Blvd","Borough":"STATEN ISLAND","HouseNum":1475,"Street":"Hylan Blvd","BoroCode":5,"BIN":5095415,"LAT":40.59248,"LONG":-74.08772}},
{"type":"Feature","geometry":{"type":"Point","coordinates":[-74.23878,40.52281]},"properties":{"OBJECTID":335,"ID":339,"Name":"Garber's Do It Best Hardware","Address":"4890 Arthur Kill Rd","Borough":"STATEN ISLAND","HouseNum":4890,"Street":"Arthur Kill Rd","BoroCode":5,"BIN":5103854,"LAT":40.52281,"LONG":-74.23878}},
{"type":"Feature","geometry":{"type":"Point","coordinates":[-74.11549,40.57401]},"properties":{"OBJECTID":336,"ID":340,"Name":"Coastal Supply Group","Address":"135 New Dorp Ln","Borough":"STATEN ISLAND","HouseNum":135,"Street":"New Dorp Ln","BoroCode":5,"BIN":5052603,"LAT":40.57401,"LONG":-74.11549}},
{"type":"Feature","geometry":{"type":"Point","coordinates":[-74.1131237,40.56505911]},"properties":{"OBJECTID":337,"ID":341,"Name":"HomeGoods","Address":"2718 Hylan Blvd","Borough":"STATEN ISLAND","HouseNum":2718,"Street":"Hylan Blvd","BoroCode":5,"BIN":0,"LAT":40.56505911,"LONG":-74.1131237}},
{"type":"Feature","geometry":{"type":"Point","coordinates":[-74.16679,40.57478]},"properties":{"OBJECTID":338,"ID":342,"Name":"HomeGoods","Address":"2875 Richmond Ave","Borough":"STATEN ISLAND","HouseNum":2875,"Street":"Richmond Ave","BoroCode":5,"BIN":5127010,"LAT":40.57478,"LONG":-74.16679}},
{"type":"Feature","geometry":{"type":"Point","coordinates":[-74.16328,40.6221]},"properties":{"OBJECTID":339,"ID":343,"Name":"CDAWG Enterprises","Address":"402 Lisk Ave","Borough":"STATEN ISLAND","HouseNum":402,"Street":"Lisk Ave","BoroCode":5,"BIN":5121420,"LAT":40.6221,"LONG":-74.16328}},
{"type":"Feature","geometry":{"type":"Point","coordinates":[-74.1773,40.61423]},"properties":{"OBJECTID":340,"ID":344,"Name":"AEG Home Improvement Corporation","Address":"1110 South Ave","Borough":"STATEN ISLAND","HouseNum":1110,"Street":"South Ave","BoroCode":5,"BIN":5141913,"LAT":40.61423,"LONG":-74.1773}},
{"type":"Feature","geometry":{"type":"Point","coordinates":[-74.16264,40.60611]},"properties":{"OBJECTID":341,"ID":345,"Name":"Inhaus Kitchen & Bath","Address":"1736 Richmond Ave","Borough":"STATEN ISLAND","HouseNum":1736,"Street":"Richmond Ave","BoroCode":5,"BIN":5036636,"LAT":40.60611,"LONG":-74.16264}},
{"type":"Feature","geometry":{"type":"Point","coordinates":[-74.11353,40.56001]},"properties":{"OBJECTID":342,"ID":346,"Name":"Stallion Home Improvement","Address":"373 Mill Rd","Borough":"STATEN ISLAND","HouseNum":373,"Street":"Mill Rd","BoroCode":5,"BIN":5055445,"LAT":40.56001,"LONG":-74.11353}},
{"type":"Feature","geometry":{"type":"Point","coordinates":[-74.16518,40.55991]},"properties":{"OBJECTID":343,"ID":347,"Name":"Awesome Home Improvement LLC","Address":"4 Cortelyou Ave","Borough":"STATEN ISLAND","HouseNum":4,"Street":"Cortelyou Ave","BoroCode":5,"BIN":5135687,"LAT":40.55991,"LONG":-74.16518}},
{"type":"Feature","geometry":{"type":"Point","coordinates":[-74.23148259,40.54905421]},"properties":{"OBJECTID":344,"ID":348,"Name":"Affordable Home Improvements","Address":"486 Industrial Loop W","Borough":"STATEN ISLAND","HouseNum":486,"Street":"Industrial Loop W","BoroCode":5,"BIN":0,"LAT":40.54905421,"LONG":-74.23148259}},
{"type":"Feature","geometry":{"type":"Point","coordinates":[-74.08753,40.59483]},"properties":{"OBJECTID":345,"ID":349,"Name":"LoPorto Fence & Home Improvements","Address":"24 Dumont Ave","Borough":"STATEN ISLAND","HouseNum":24,"Street":"Dumont Ave","BoroCode":5,"BIN":5049001,"LAT":40.59483,"LONG":-74.08753}}
]}